[{"status": "OK", "classification": "LOJA MIL", "masterBranch": "Nao", "phone": "99209303", "manager": "ANDRE LUIZ SCARINCI BESSA", "address": "AVENIDA AMPELIO GAZETTA  LOJA 9  CENTRO NOVA ODESSA SP 13460000", "lat": "-22.7775001526", "long": "-47.2958297729", "branch": "7252", "storeType": "HIPERMERCADO", "email": "cvc7252@cvc.com.br"}, {"status": "OK", "classification": "LOJA MIL", "masterBranch": "Nao", "phone": "36223308", "manager": "", "address": "RUA COSTA AZEVEDO   MANAUS AM 69010230", "lat": "-3.10193991661", "long": "-60.0250015259", "branch": "3930", "storeType": "ENCERRADA", "email": "viamundo@viamundo.com.br"}, {"status": "OK", "classification": "LOJA MIL", "masterBranch": "Nao", "phone": "78647759", "manager": "LUCIANA BIANCHI FIORONI", "address": "AVENIDA DOS AUTONOMISTAS BOX 20  OSASCO SP 6020015", "lat": "-23.5263195038", "long": "-46.7883987427", "branch": "9870", "storeType": "ENCERRADA", "email": "CARLOSSOUZA@CVC.COM.BR"}, {"status": "OK", "classification": "LOJA MIL", "masterBranch": "Nao", "phone": "99751100", "manager": "JOAO PAULO STROPAISSI", "address": "RUA CEL JOAO CORREA SALA 15 CENTRO GRAMADO RS 95670000", "lat": "-29.378610611", "long": "-50.8738899231", "branch": "6605", "storeType": "RUA", "email": "MONICACABERLON@CVC.COM.BR"}, {"status": "OK", "classification": "LOJA MIL", "masterBranch": "Nao", "phone": "77549479", "manager": "VIVIAN CRISTINA ROQUE", "address": "AVENIDA SAO MIGUEL LOJA 13  SAO PAULO SP 8070001", "lat": "-23.5475006104", "long": "-46.6361083984", "branch": "880", "storeType": "HIPERMERCADO", "email": "cvc880@cvc.com.br"}, {"status": "OK", "classification": "LOJA MIL", "masterBranch": "Nao", "phone": "78032269", "manager": "ANDRE LUIZ SCARINCI BESSA", "address": "RUA ARMANDO STECK SALA 12 CENTRO LOUVEIRA SP 13290000", "lat": "-3.73832714972", "long": "-38.5674395389", "branch": "652", "storeType": "MALL", "email": "normascandiuzzi@cvc.com.br"}, {"status": "OK", "classification": "LOJA MIL", "masterBranch": "Nao", "phone": "81693088", "manager": "ANDRE LUIZ SCARINCI BESSA", "address": "RUA GUSTAVO MACIEL QUADRA Nº 26-60 LOJA 02  BAURU SP 17016200", "lat": "-22.3411696553", "long": "-49.0656407218", "branch": "4780", "storeType": "RUA", "email": "WAGNERJUNIOR@CVC.COM.BR"}, {"status": "OK", "classification": "LOJA MIL", "masterBranch": "Nao", "phone": "33140024", "manager": "", "address": "RUA ANTUNES RIBAS SALA 102  SANTO ANGELO RS 98801630", "lat": "-28.2991695404", "long": "-54.2630615234", "branch": "6655", "storeType": "ENCERRADA", "email": "SANDRACADORE@CVC.COM.BR"}, {"status": "OK", "classification": "LOJA MIL", "masterBranch": "Nao", "phone": "99288816", "manager": "JOAO PAULO STROPAISSI", "address": "RUA FREI ROGERIO LOJA Nº 12 - PISO TERREO  LAGES SC 88502161", "lat": "-27.1747207642", "long": "-50.8047218323", "branch": "9075", "storeType": "RUA", "email": "EDIANE@CVC.COM.BR"}, {"status": "OK", "classification": "LOJA MIL", "masterBranch": "Nao", "phone": "34622211", "manager": "ANSELMO  UGIIE  BREVES", "address": "AVENIDA DO CONTORNO LOJA 4 JUNCO SOBRAL CE 62000000", "lat": "-3.68611001968", "long": "-40.3497200012", "branch": "2590", "storeType": "MALL", "email": "eduardobruno@cvc.com.br"}, {"status": "OK", "classification": "LOJA MIL", "masterBranch": "Nao", "phone": "32280898", "manager": "JOAO PAULO STROPAISSI", "address": "AVENIDA JUCA BATISTA LOJA 105  PORTO ALEGRE RS 91770001", "lat": "-30.0330600739", "long": "-51.2299995422", "branch": "6615", "storeType": "HIPERMERCADO", "email": "ewertonlanzini@cvc.com.br"}, {"status": "OK", "classification": "LOJA MIL", "masterBranch": "Nao", "phone": "91568470", "manager": "ANSELMO  UGIIE  BREVES", "address": "AVENIDA DEPUTADO OSWALDO STUDART LOJA 01  FORTALEZA CE 60411260", "lat": "-3.7527895743", "long": "-38.5273477177", "branch": "2581", "storeType": "RUA", "email": "elianajorge@cvc.com.br"}, {"status": "OK", "classification": "LOJA MIL", "masterBranch": "Nao", "phone": "81485467", "manager": "ANDRE LUIZ SCARINCI BESSA", "address": "AVENIDA TABAJARAS LOJA 04  TUPA SP 17604020", "lat": "-7.12580632975", "long": "-34.8789397715", "branch": "4790", "storeType": "HIPERMERCADO", "email": "DIRCEUTONDATTO@CVC.COM.BR"}, {"status": "OK", "classification": "LOJA MIL", "masterBranch": "Nao", "phone": "91281278", "manager": "ANSELMO  UGIIE  BREVES", "address": "AVENIDA HERMES FONTES SALA A  ARACAJU SE 49052000", "lat": "-10.9111099243", "long": "-37.0716705322", "branch": "8260", "storeType": "RUA", "email": "reinaldovaranda@cvc.com.br"}, {"status": "OK", "classification": "LOJA MIL", "masterBranch": "Nao", "phone": "46797575", "manager": "CLEBER JOSE GUIMARAES JUNIOR", "address": "AVENIDA QUINZE DE NOVEMBRO   FERRAZ DE VASCONCELOS SP 8500405", "lat": "-23.5615291595", "long": "-46.3749008179", "branch": "6230", "storeType": "RUA", "email": "elaineribeiro@cvc.com.br"}, {"status": "OK", "classification": "LOJA MIL", "masterBranch": "Nao", "phone": "92551999", "manager": "JOAO PAULO STROPAISSI", "address": "AVENIDA PREFEITO ROQUE VERNALHA LOJA 8 CENTRO MATINHOS PR 83260000", "lat": "-25.5240135191", "long": "-48.5293400736", "branch": "1752", "storeType": "GALERIA", "email": "davidacruz@cvc.com.br"}, {"status": "OK", "classification": "LOJA MIL", "masterBranch": "Nao", "phone": "986162056", "manager": "ANDRE LUIZ SCARINCI BESSA", "address": "AVENIDA PEDRO OMETTO LOJA 25 BOX B 19 CENTRO BARRA BONITA SP 17340000", "lat": "-22.4750709534", "long": "-48.547039032", "branch": "4765", "storeType": "SHOPPING", "email": "heliamorisson@cvc.com.br"}, {"status": "OK", "classification": "LOJA MIL", "masterBranch": "Nao", "phone": "91340132", "manager": "ANSELMO  UGIIE  BREVES", "address": "RUA ESTUDANTE JOSE DE OLIVEIRA LEITE LOJA 01  ARAPIRACA AL 57300315", "lat": "-9.50947948731", "long": "-36.0195554174", "branch": "8640", "storeType": "SHOPPING", "email": "helioaugusto@cvc.com.br"}, {"status": "OK", "classification": "LOJA MIL", "masterBranch": "Nao", "phone": "91050061", "manager": "ANDRE LUIZ SCARINCI BESSA", "address": "AVENIDA FORTUNATO ERNESTO VETORASSO SALA A  SAO JOSE DO RIO PRETO SP 15040170", "lat": "-20.769109726", "long": "-49.3566894531", "branch": "8705", "storeType": "ENCERRADA", "email": "CAROLINELIBRETI@CVC.COM.BR"}, {"status": "OK", "classification": "LOJA MIL", "masterBranch": "Nao", "phone": "99982831", "manager": "RICARDO ALEXANDRE DOS SANTOS KAISER", "address": "AVENIDA SENADOR TEOTONIO VILELA BOX 4  SAO PAULO SP 4801010", "lat": "-23.5475006104", "long": "-46.6361083984", "branch": "760", "storeType": "HIPERMERCADO", "email": "MARIOPARANHOS@CVC.COM.BR"}, {"status": "OK", "classification": "LOJA MIL", "masterBranch": "Sim", "phone": "", "manager": "", "address": "RUA FERNANDES VIEIRA LOJA 206 A   PORTO ALEGRE RS 90035091", "lat": "-30.0330600739", "long": "-51.2299995422", "branch": "6635", "storeType": "HIPERMERCADO", "email": "claudiahelena@cvc.com.br"}, {"status": "OK", "classification": "LOJA MIL", "masterBranch": "Nao", "phone": "45448111", "manager": "ANA PAULA TOMAZ MARTINS", "address": "RUA CAMPOS SALES B  MAUA SP 9310040", "lat": "-26.0020008087", "long": "-49.9803009033", "branch": "6201", "storeType": "HIPERMERCADO", "email": "cvccoop@cvc.com.br"}, {"status": "OK", "classification": "LOJA MIL", "masterBranch": "Nao", "phone": "78117966", "manager": "RICHARD ZODRA ANDREAZZA", "address": "AVENIDA DEPUTADO JAMEL CECILIO SALA 16 A  GOIANIA GO 74810900", "lat": "-16.678609848", "long": "-49.2538909912", "branch": "8992", "storeType": "HIPERMERCADO", "email": "EDEGARDMARTINS@CVC.COM.BR"}, {"status": "OK", "classification": "LOJA MIL", "masterBranch": "Nao", "phone": "27649092", "manager": "ADRIANO GOMES SANTA ANA", "address": "RUA MARIA LETICIA TERREO CENTRO RIO DAS OSTRAS RJ 28890000", "lat": "-22.5269393921", "long": "-41.9449996948", "branch": "9942", "storeType": "RUA", "email": "amandanicolle@cvc.com.br"}, {"status": "OK", "classification": "LOJA MIL", "masterBranch": "Nao", "phone": "92915817", "manager": "JOAO PAULO STROPAISSI", "address": "AVENIDA REVERENDO AMERICO VESPUCIO CABRAL  CENTRO VIAMAO RS 94400000", "lat": "-30.0828036977", "long": "-51.032192548", "branch": "1161", "storeType": "GALERIA", "email": "helena@cvc.com.br"}, {"status": "OK", "classification": "LOJA MIL", "masterBranch": "Nao", "phone": "97744243", "manager": "ANDRE LUIZ SCARINCI BESSA", "address": "RUA ANTONIO PEDRO  CENTRO PEDREIRA SP 13920000", "lat": "-23.6492938393", "long": "-46.6089356911", "branch": "617", "storeType": "RUA", "email": "SILVIOROSSETTI@CVC.COM.BR"}, {"status": "OK", "classification": "LOJA MIL", "masterBranch": "Nao", "phone": "84161046", "manager": "JOAO PAULO STROPAISSI", "address": "RUA GETULIO VARGAS   LAGES SC 88508620", "lat": "-27.816110611", "long": "-50.3261108398", "branch": "9085", "storeType": "HIPERMERCADO", "email": "edianeramos@cvc.com.br"}, {"status": "OK", "classification": "LOJA MIL", "masterBranch": "Nao", "phone": "99734808", "manager": "ADRIANO GOMES SANTA ANA", "address": "AVENIDA AVENIDA JOHN KENNEDY LOJA 19 CENTRO ARARUAMA RJ 28970000", "lat": "-22.5328949346", "long": "-44.1432094879", "branch": "9948", "storeType": "GALERIA", "email": "luciarejane@cvc.com.br"}, {"status": "OK", "classification": "LOJA MIL", "masterBranch": "Nao", "phone": "92132882", "manager": "RICHARD ZODRA ANDREAZZA", "address": "RUA FREI MARIANO   CORUMBA MS 79300002", "lat": "-19.0091705322", "long": "-57.6533317566", "branch": "2635", "storeType": "RUA", "email": "patriciapazin@cvc.com.br"}, {"status": "OK", "classification": "LOJA MIL", "masterBranch": "Nao", "phone": "97744243", "manager": "ANDRE LUIZ SCARINCI BESSA", "address": "AVENIDA BERNARDINO DE CAMPOS   AMPARO SP 13900400", "lat": "-23.0269794464", "long": "-49.4927711487", "branch": "614", "storeType": "RUA", "email": "SILVIO@PLANETATURISMO.NET"}, {"status": "OK", "classification": "LOJA MIL", "masterBranch": "Nao", "phone": "30762629", "manager": "ANSELMO  UGIIE  BREVES", "address": "AVENIDA CONSELHEIRO ROSA E SILVA LOJA 04  RECIFE PE 52050020", "lat": "-8.0508027927", "long": "-34.8969720122", "branch": "2302", "storeType": "SHOPPING", "email": "thyagooliveira@cvc.com.br"}, {"status": "OK", "classification": "LOJA MIL", "masterBranch": "Nao", "phone": "96296074", "manager": "JOAO PAULO STROPAISSI", "address": "AVENIDA GOVERNADOR IVO SILVEIRA   FLORIANOPOLIS SC 88085001", "lat": "-27.5970424424", "long": "-48.5754170269", "branch": "9150", "storeType": "HIPERMERCADO", "email": "sergiomartins@cvc.com.br"}, {"status": "OK", "classification": "LOJA MIL", "masterBranch": "Nao", "phone": "88749954", "manager": "ADRIANO GOMES SANTA ANA", "address": "RUA DA BANDEIRA LOJA 02  TRES RIOS RJ 25804120", "lat": "-22.9119300842", "long": "-43.2148017883", "branch": "4240", "storeType": "RUA", "email": "deboratoledo@cvc.com.br"}, {"status": "OK", "classification": "LOJA MIL", "masterBranch": "Nao", "phone": "92316909", "manager": "RICHARD ZODRA ANDREAZZA", "address": "AVENIDA TAMANDARE SALA 04  CAMPO GRANDE MS 79009790", "lat": "-20.442779541", "long": "-54.6463890076", "branch": "2670", "storeType": "ENCERRADA", "email": "LUIZGONZAGA@CVC.COM.BR"}, {"status": "OK", "classification": "LOJA MIL", "masterBranch": "Nao", "phone": "981533600", "manager": "ANDRE LUIZ SCARINCI BESSA", "address": "RUA VERISSIMO PRADO SALA 02 SAO PEDRO SAO PEDRO SP 13520000", "lat": "0.933329999447", "long": "-29.3666706085", "branch": "6365", "storeType": "RUA", "email": "cvc6365@cvc.com.br"}, {"status": "OK", "classification": "LOJA MIL", "masterBranch": "Nao", "phone": "31141212", "manager": "JOAO PAULO STROPAISSI", "address": "RUA  DR. LAURO AZAMBUJA  CENTRO GUAIBA RS 92500000", "lat": "-30.8570073609", "long": "-51.787280262", "branch": "6603", "storeType": "RUA", "email": "cvc6603@cvc.com.br"}, {"status": "OK", "classification": "LOJA MIL", "masterBranch": "Nao", "phone": "", "manager": "VIVIAN CRISTINA ROQUE", "address": "RUA DEPUTADO ULISSES GUIMARAES   GUARULHOS SP 7140115", "lat": "-25.5319975373", "long": "-49.2828324043", "branch": "9690", "storeType": "HIPERMERCADO", "email": "LARA@CVC.COM.BR"}, {"status": "OK", "classification": "LOJA MIL", "masterBranch": "Nao", "phone": "81125417", "manager": "ANDRE LUIZ SCARINCI BESSA", "address": "RUA BARAO DE JACAREI   JACAREI SP 12308000", "lat": "-23.3052806854", "long": "-45.9658317566", "branch": "9561", "storeType": "RUA", "email": "giselerocha@cvc.com.br"}, {"status": "OK", "classification": "LOJA MIL", "masterBranch": "Nao", "phone": "84478378", "manager": "ANDRE LUIZ SCARINCI BESSA", "address": "AVENIDA ITAVUVU LOJA SA 176  SOROCABA SP 18075042", "lat": "-23.5016708374", "long": "-47.4580612183", "branch": "4882", "storeType": "SHOPPING", "email": "FABIOCASTRO@CVC.COM.BR"}, {"status": "OK", "classification": "LOJA MIL", "masterBranch": "Nao", "phone": "91175270", "manager": "ANSELMO  UGIIE  BREVES", "address": "RUA BENFICA LOJA 07  RECIFE PE 50720001", "lat": "-8.05389022827", "long": "-34.881111145", "branch": "2388", "storeType": "HIPERMERCADO", "email": "antonioazevedo@cvc.com.br"}, {"status": "OK", "classification": "LOJA MIL", "masterBranch": "Nao", "phone": "36160300", "manager": "ANSELMO  UGIIE  BREVES", "address": "AVENIDA LUIS VIANA   SALVADOR BA 41730101", "lat": "-12.9711103439", "long": "-38.5108299255", "branch": "8559", "storeType": "HIPERMERCADO", "email": "martalobo@cvc.com.br"}, {"status": "OK", "classification": "LOJA MIL", "masterBranch": "Nao", "phone": "83117387", "manager": "RICHARD ZODRA ANDREAZZA", "address": "QUADRA SQB 1 LOTE 08 - BLOCO Q RUA QUARESMEIRA LOJA2   BRASILIA DF 71009000", "lat": "-15.7797203064", "long": "-47.9297218323", "branch": "2026", "storeType": "GALERIA", "email": "helioramos@cvc.com.br"}, {"status": "OK", "classification": "LOJA MIL", "masterBranch": "Nao", "phone": "82265229", "manager": "ANDRE LUIZ SCARINCI BESSA", "address": "RUA RUA TREZE DE MAIO  CENTRO SAO JOSE DO RIO PARDO SP 13720000", "lat": "-21.5955600739", "long": "-46.8886108398", "branch": "691", "storeType": "RUA", "email": "sabrina@cvc.com.br"}, {"status": "OK", "classification": "LOJA MIL", "masterBranch": "Nao", "phone": "89813639", "manager": "RICARDO ALEXANDRE DOS SANTOS KAISER", "address": "RUA BARAO DE JACEGUAI   MOGI DAS CRUZES SP 8710160", "lat": "-23.5227794647", "long": "-46.188331604", "branch": "9211", "storeType": "RUA", "email": "HELDERYAMAKI@CVC.COM.BR"}, {"status": "OK", "classification": "LOJA MIL", "masterBranch": "Nao", "phone": "97744243", "manager": "ANDRE LUIZ SCARINCI BESSA", "address": "RUA EGAS BUENO  CENTRO JAGUARIUNA SP 13820000", "lat": "-22.7055606842", "long": "-46.9858283997", "branch": "616", "storeType": "RUA", "email": "SILVIOROSSETTI@CVC.COM.BR"}, {"status": "OK", "classification": "LOJA MIL", "masterBranch": "Nao", "phone": "78117966", "manager": "RICHARD ZODRA ANDREAZZA", "address": "AVENIDA RAULINA FONSECA PASCOAL SALA A  CATALAO GO 75701480", "lat": "-17.9771499634", "long": "-47.7019195557", "branch": "8993", "storeType": "RUA", "email": "EDEGARDMARTINS@CVC.COM.BR"}, {"status": "OK", "classification": "LOJA MIL", "masterBranch": "Nao", "phone": "97990099", "manager": "ANSELMO  UGIIE  BREVES", "address": "AVENIDA ENGENHEIRO DOMINGOS FERREIRA   RECIFE PE 51111020", "lat": "-8.05389022827", "long": "-34.881111145", "branch": "2325", "storeType": "HIPERMERCADO", "email": "cvc2325@cvc.com.br"}, {"status": "OK", "classification": "LOJA MIL", "masterBranch": "Nao", "phone": "78121093", "manager": "ANDRE LUIZ SCARINCI BESSA", "address": "RUA VISCONDE DO RIO BRANCO  CENTRO SANTA RITA DO PASSA QUATRO SP 13670000", "lat": "-21.7102794647", "long": "-47.478061676", "branch": "9715", "storeType": "RUA", "email": "vanessacrivelenti@cvc.com.br"}, {"status": "OK", "classification": "LOJA MIL", "masterBranch": "Nao", "phone": "88357124", "manager": "ANSELMO  UGIIE  BREVES", "address": "AVENIDA PADRE CICERO LOJA 35  JUAZEIRO DO NORTE CE 63041140", "lat": "-7.21305990219", "long": "-39.3152809143", "branch": "2591", "storeType": "SHOPPING", "email": "cvc2591@cvc.com.br"}, {"status": "OK", "classification": "LOJA MIL", "masterBranch": "Nao", "phone": "99747571", "manager": "ANDRE LUIZ SCARINCI BESSA", "address": "PRACA MONSENHOR ALBINO   CATANDUVA SP 15800215", "lat": "-21.1377792358", "long": "-48.9727783203", "branch": "7861", "storeType": "RUA", "email": "janainasimoes@cvc.com.br"}, {"status": "OK", "classification": "LOJA MIL", "masterBranch": "Sim", "phone": "21912482", "manager": "", "address": "RUA DOS ANDRADAS   PORTO ALEGRE RS 90020010", "lat": "-30.0330600739", "long": "-51.2299995422", "branch": "430", "storeType": "GALERIA", "email": "joaostropaissi@cvc.com.br"}, {"status": "OK", "classification": "LOJA MIL", "masterBranch": "Nao", "phone": "78647759", "manager": "LUCIANA BIANCHI FIORONI", "address": "RUA BENEDITO AMERICO DE OLIVEIRA TERREO - LOJA 10  OSASCO SP 6028080", "lat": "-23.5263195038", "long": "-46.7883987427", "branch": "9890", "storeType": "MALL", "email": "carlossouza@cvc.com.br"}, {"status": "OK", "classification": "LOJA MIL", "masterBranch": "Nao", "phone": "97412912", "manager": "ANDRE LUIZ SCARINCI BESSA", "address": "AVENIDA CLARA GIANOTTI DE SOUZA SALA 2 CENTRO REGISTRO SP 11900000", "lat": "-24.5024023886", "long": "-47.854363711", "branch": "9460", "storeType": "GALERIA", "email": "fernandaandre@cvc.com.br"}, {"status": "OK", "classification": "LOJA MIL", "masterBranch": "Nao", "phone": "21080621", "manager": "JOAO PAULO STROPAISSI", "address": "AVENIDA GOVERNADOR IRINEU BORNHAUSEN LOJA 11  FLORIANOPOLIS SC 88025202", "lat": "-27.5723042366", "long": "-48.5317968777", "branch": "9095", "storeType": "HIPERMERCADO", "email": "MELISSAFIDELIS@CVC.COM.BR"}, {"status": "OK", "classification": "LOJA MIL", "masterBranch": "Nao", "phone": "81336600", "manager": "JOAO PAULO STROPAISSI", "address": "AVENIDA 25 DE JULHO  CENTRO DOIS IRMAOS RS 93950000", "lat": "-30.7234992981", "long": "-52.3502006531", "branch": "5301", "storeType": "RUA", "email": "marcoalles@cvc.com.br"}, {"status": "OK", "classification": "LOJA MIL", "masterBranch": "Nao", "phone": "64775810", "manager": "", "address": "ESTRADA KIZAEMON TAKEUTI   TABOAO DA SERRA SP 6775001", "lat": "-23.6261100769", "long": "-46.7916717529", "branch": "5968", "storeType": "ENCERRADA", "email": "MARCELATEIXEIRA@CVC.COM.BR"}, {"status": "OK", "classification": "LOJA MIL", "masterBranch": "Nao", "phone": "78146144", "manager": "RICHARD ZODRA ANDREAZZA", "address": "AREA ESPECIAL 1 EQ 55/56 STAND 13  BRASILIA DF 72405610", "lat": "-15.7797203064", "long": "-47.9297218323", "branch": "2019", "storeType": "SHOPPING", "email": "IVANIRACARNEIRO@CVC.COM.BR"}, {"status": "OK", "classification": "LOJA MIL", "masterBranch": "Nao", "phone": "36534200", "manager": "ANSELMO  UGIIE  BREVES", "address": "RUA NOVA LOJA A CENTRO SANTA INES MA 6530000", "lat": "-3.666670084", "long": "-45.3800010681", "branch": "1832", "storeType": "RUA", "email": "cvc1832@cvc.com.br"}, {"status": "OK", "classification": "LOJA MIL", "masterBranch": "Nao", "phone": "97089738", "manager": "ANDRE LUIZ SCARINCI BESSA", "address": "AV SANTA CASA  CENTRO PENAPOLIS SP 16300000", "lat": "-21.419719696", "long": "-50.0774993896", "branch": "8765", "storeType": "RUA", "email": "cvc8765@cvc.com.br"}, {"status": "OK", "classification": "LOJA MIL", "masterBranch": "Nao", "phone": "99919717", "manager": "JOAO PAULO STROPAISSI", "address": "AVENIDA MARINHEIRO MAX SCHRAMM LOJA 14  FLORIANOPOLIS SC 88095000", "lat": "-27.5743168", "long": "-48.59920075", "branch": "9140", "storeType": "HIPERMERCADO", "email": "claudiaduarte@cvc.com.br"}, {"status": "OK", "classification": "LOJA MIL", "masterBranch": "Nao", "phone": "84123507", "manager": "RICHARD ZODRA ANDREAZZA", "address": "QUADRA CL 114 BLOCO D   BRASILIA DF 72544204", "lat": "-15.7797203064", "long": "-47.9297218323", "branch": "2025", "storeType": "MALL", "email": "adrianocardoso@cvc.com.br"}, {"status": "OK", "classification": "LOJA MIL", "masterBranch": "Nao", "phone": "97695907", "manager": "CLEBER JOSE GUIMARAES JUNIOR", "address": "AVENIDA ITALO ADAMI LUC 45 VILA ZEFERINA  ITAQUAQUECETUBA SP 8570000", "lat": "-23.4944601801", "long": "-46.3485821262", "branch": "6221", "storeType": "SHOPPING", "email": "alessandrorodrigues@cvc.com.br"}, {"status": "OK", "classification": "LOJA MIL", "masterBranch": "Nao", "phone": "99465993", "manager": "ANSELMO  UGIIE  BREVES", "address": "AVENIDA DOS EXPEDICIONARIOS BOX 8  FORTALEZA CE 60410446", "lat": "-3.71722006798", "long": "-38.5430603027", "branch": "2586", "storeType": "HIPERMERCADO", "email": "elianajorge@cvc.com.br"}, {"status": "OK", "classification": "LOJA MIL", "masterBranch": "Nao", "phone": "98150849", "manager": "ADRIANO GOMES SANTA ANA", "address": "RUA BONIFACIO PORTELA LOJA 124 RIO DE JANEIRO MIGUEL PEREIRA RJ 26900000", "lat": "-22.9027805328", "long": "-43.2075004578", "branch": "9953", "storeType": "MALL", "email": "marcosguimaraes@cvc.com.br"}, {"status": "OK", "classification": "LOJA MIL", "masterBranch": "Nao", "phone": "99955233", "manager": "ADRIANO GOMES SANTA ANA", "address": "RUA MADRE FILOMENA   BARRA MANSA RJ 27330350", "lat": "-22.5441703796", "long": "-44.1713905334", "branch": "9949", "storeType": "RUA", "email": "patricia@ggturismo.com.br"}, {"status": "OK", "classification": "LOJA MIL", "masterBranch": "Nao", "phone": "76367777", "manager": "LUCIANA BIANCHI FIORONI", "address": "AVENIDA MAJOR SYLVIO DE MAGALHAES PADILHA LOJA 1 - EXTRA SM  SAO PAULO SP 5693000", "lat": "-23.5475006104", "long": "-46.6361083984", "branch": "3230", "storeType": "HIPERMERCADO", "email": "diegorodriguez@cvc.com.br"}, {"status": "OK", "classification": "LOJA MIL", "masterBranch": "Nao", "phone": "0", "manager": "ANA PAULA TOMAZ MARTINS", "address": "AVENIDA SENADOR VERGUEIRO BOX 12  SAO BERNARDO DO CAMPO SP 9750001", "lat": "-23.6938896179", "long": "-46.5649986267", "branch": "3711", "storeType": "HIPERMERCADO", "email": "cvc3711@cvc.com.br"}, {"status": "OK", "classification": "LOJA MIL", "masterBranch": "Nao", "phone": "45216505", "manager": "ANDRE LUIZ SCARINCI BESSA", "address": "AVENIDA PROFESSORA MARIA DO CARMO GUIMARAES PELL KM 59 BOX 18  JUNDIAI SP 13209500", "lat": "-23.1842795176", "long": "-46.9085715846", "branch": "4893", "storeType": "HIPERMERCADO", "email": "MARIELPINHEIRO@CVC.COM.BR"}, {"status": "OK", "classification": "LOJA MIL", "masterBranch": "Nao", "phone": "97567030", "manager": "ANDRE LUIZ SCARINCI BESSA", "address": "AVENIDA RUI TEIXEIRA MENDES BOX 22  PIRACICABA SP 13403825", "lat": "-30.0309405524", "long": "-51.1658486066", "branch": "6355", "storeType": "HIPERMERCADO", "email": "ALDANOFILHO@CVC.COM.BR"}, {"status": "OK", "classification": "LOJA MIL", "masterBranch": "Nao", "phone": "35496908", "manager": "RICHARD ZODRA ANDREAZZA", "address": "AVENIDA  RIO GRANDE DO SUL  CENTRO LUCAS DO RIO VERDE MT 78455000", "lat": "-30.0", "long": "-53.5", "branch": "2715", "storeType": "RUA", "email": "indalmeida@hotmail.com"}, {"status": "OK", "classification": "LOJA MIL", "masterBranch": "Nao", "phone": "33700110", "manager": "JOAO PAULO STROPAISSI", "address": "RUA XV DE NOVEMBRO  CENTRO ARARANGUA SC 88900972", "lat": "-22.8966412303", "long": "-43.1196310679", "branch": "9060", "storeType": "RUA", "email": "email@email.com.br"}, {"status": "OK", "classification": "LOJA MIL", "masterBranch": "Nao", "phone": "94511501", "manager": "ANSELMO  UGIIE  BREVES", "address": "RUA LEONEL LEITE LOJA 110 B  NATAL RN 59037820", "lat": "-5.79500007629", "long": "-35.209438324", "branch": "2494", "storeType": "SHOPPING", "email": "CVCSHOPPING10@CVC.COM.BR"}, {"status": "OK", "classification": "LOJA MIL", "masterBranch": "Nao", "phone": "91523557", "manager": "ANDRE LUIZ SCARINCI BESSA", "address": "AVENIDA JOAO BATISTA LEAL LOJA 02 CENTRO ITANHAEM SP 11740000", "lat": "-23.55191625", "long": "-46.43476005", "branch": "9480", "storeType": "RUA", "email": "AD_AMA@HOTMAIL.COM"}, {"status": "OK", "classification": "LOJA MIL", "masterBranch": "Sim", "phone": "", "manager": "", "address": "RUA DAS ESMERALDAS 11º ANDAR.  SANTO ANDRE SP 9090770", "lat": "-23.6638908386", "long": "-46.5383300781", "branch": "1010", "storeType": "RUA", "email": "cvc1010@cvc.com.br"}, {"status": "OK", "classification": "LOJA MIL", "masterBranch": "Nao", "phone": "34254800", "manager": "JOAO PAULO STROPAISSI", "address": "RUA JOAO EUGENIO LOJA 50  PARANAGUA PR 83203400", "lat": "-25.5194396973", "long": "-48.5199203491", "branch": "1750", "storeType": "RUA", "email": "cvc1750@cvc.com.br"}, {"status": "OK", "classification": "LOJA MIL", "masterBranch": "Nao", "phone": "97743861", "manager": "ANDRE LUIZ SCARINCI BESSA", "address": "RUA XV DE NOVEMBRO  CENTRO NOVO HORIZONTE SP 14960000", "lat": "-22.8966412303", "long": "-43.1196310679", "branch": "8775", "storeType": "RUA", "email": "cvc8775@cvc.com.br"}, {"status": "OK", "classification": "LOJA MIL", "masterBranch": "Nao", "phone": "99169391", "manager": "", "address": "AVENIDA MAXIMINO PORPINO DA SILVA A  CASTANHAL PA 68743000", "lat": "-7.1626805", "long": "-34.86412355", "branch": "2990", "storeType": "ENCERRADA", "email": "camilaoliveira@cvc.com.br"}, {"status": "OK", "classification": "LOJA MIL", "masterBranch": "Nao", "phone": "32139333", "manager": "ANDRE LUIZ SCARINCI BESSA", "address": "AVENIDA TANCREDO NEVES BOX 08  SAO JOSE DO RIO PRETO SP 15076630", "lat": "-20.769109726", "long": "-49.3566894531", "branch": "8737", "storeType": "HIPERMERCADO", "email": "michaelzanini@cvc.com.br"}, {"status": "OK", "classification": "LOJA MIL", "masterBranch": "Nao", "phone": "995876024", "manager": "RICARDO ALEXANDRE DOS SANTOS KAISER", "address": "AVENIDA DO TABOAO   SAO BERNARDO DO CAMPO SP 9655000", "lat": "-23.6938896179", "long": "-46.5649986267", "branch": "3818", "storeType": "RUA", "email": "ericodolazza@cvc.com.br"}, {"status": "OK", "classification": "LOJA MIL", "masterBranch": "Nao", "phone": "88373006", "manager": "ANSELMO  UGIIE  BREVES", "address": "RUA CAMELIAS   TERESINA PI 64056255", "lat": "-5.0891699791", "long": "-42.801940918", "branch": "7050", "storeType": "RUA", "email": "digiogiosoares@cvc.com.br"}, {"status": "OK", "classification": "LOJA MIL", "masterBranch": "Nao", "phone": "92551999", "manager": "JOAO PAULO STROPAISSI", "address": "RUA JACARANDA   FAZENDA RIO GRANDE PR 83823014", "lat": "-25.2042999268", "long": "-48.958530426", "branch": "9391", "storeType": "SHOPPING", "email": "samaraandrade@cvc.com.br"}, {"status": "OK", "classification": "LOJA MIL", "masterBranch": "Nao", "phone": "968111131", "manager": "ADRIANO GOMES SANTA ANA", "address": "RUA ABREU SODRE   MARICA RJ 24900105", "lat": "-20.6633508418", "long": "-40.4996948137", "branch": "9954", "storeType": "GALERIA", "email": "cvc9954@cvc.com.br"}, {"status": "OK", "classification": "LOJA MIL", "masterBranch": "Nao", "phone": "81221890", "manager": "ANDRE LUIZ SCARINCI BESSA", "address": "AVENIDA AURORA FORTI NEVES  CENTRO OLIMPIA SP 15400000", "lat": "-20.7270769", "long": "-48.9156189", "branch": "8735", "storeType": "RUA", "email": "eduardoz@cvc.com.br"}, {"status": "OK", "classification": "LOJA MIL", "masterBranch": "Nao", "phone": "30530166", "manager": "JOAO PAULO STROPAISSI", "address": "AVENIDA PAUL HARRIS LOJA 07  SANTA CRUZ DO SUL RS 96810408", "lat": "-29.7175006866", "long": "-52.4258308411", "branch": "4110", "storeType": "HIPERMERCADO", "email": "ewertonlanzini@cvc.com.br"}, {"status": "OK", "classification": "LOJA MIL", "masterBranch": "Nao", "phone": "82457162", "manager": "CLEBER JOSE GUIMARAES JUNIOR", "address": "AVENIDA DAS NACOES UNIDAS LOJA AR03  SAO PAULO SP 4794000", "lat": "-23.5475006104", "long": "-46.6361083984", "branch": "4640", "storeType": "HIPERMERCADO", "email": "rodermil@cvc.com.br"}, {"status": "OK", "classification": "LOJA MIL", "masterBranch": "Nao", "phone": "35334600", "manager": "RICHARD ZODRA ANDREAZZA", "address": "RUA DOS LIRIOS SALA A  SINOP MT 78550250", "lat": "-23.538622573", "long": "-46.4682529965", "branch": "2780", "storeType": "RUA", "email": "SARASABO@CVC.COM.BR"}, {"status": "OK", "classification": "LOJA MIL", "masterBranch": "Nao", "phone": "36126250", "manager": "RICHARD ZODRA ANDREAZZA", "address": "RUA CAPITAO MANOEL MIRANDA   BARREIRAS BA 47805210", "lat": "-23.547099", "long": "-46.4944191", "branch": "8480", "storeType": "RUA", "email": "cvc8480@cvc.com.br"}, {"status": "OK", "classification": "LOJA MIL", "masterBranch": "Nao", "phone": "97403463", "manager": "ANDRE LUIZ SCARINCI BESSA", "address": "AVENIDA RUY RODRIGUES  PARQUE SANTA LETICIA CAMPINAS SP 13056600", "lat": "-22.9055595398", "long": "-47.0608291626", "branch": "675", "storeType": "SHOPPING", "email": "paulolourenco@cvc.com.br"}, {"status": "OK", "classification": "LOJA MIL", "masterBranch": "Nao", "phone": "99811330", "manager": "RICHARD ZODRA ANDREAZZA", "address": "AVENIDA THEOMARIO PINTO DA COSTA  SALA 01 LOTE SIRIO LIBANES  CHAPADA MANAUS AM 69000000", "lat": "-3.10193991661", "long": "-60.0250015259", "branch": "3940", "storeType": "MALL", "email": "staelbarbosa@cvc.com.br"}, {"status": "OK", "classification": "LOJA MIL", "masterBranch": "Nao", "phone": "33164636", "manager": "RICHARD ZODRA ANDREAZZA", "address": "AVENIDA COUTO MAGALHAES A  VARZEA GRANDE MT 78110400", "lat": "-15.6466703415", "long": "-56.1324996948", "branch": "2760", "storeType": "ENCERRADA", "email": "OIRAN@CVC.COM.BR"}, {"status": "OK", "classification": "LOJA MIL", "masterBranch": "Nao", "phone": "97379846", "manager": "ANDRE LUIZ SCARINCI BESSA", "address": "AVENIDA PADRE ANCHIETA LOJA 02 SAMBURA PERUIBE SP 11750000", "lat": "-3.72897539368", "long": "-38.5517724606", "branch": "9485", "storeType": "RUA", "email": "amandamariano@cvc.com.br"}, {"status": "OK", "classification": "LOJA MIL", "masterBranch": "Nao", "phone": "92232185", "manager": "ANDRE LUIZ SCARINCI BESSA", "address": "RUA JEREMIAS DE PAULA EDUARDO  CENTRO MONTE ALTO SP 15910000", "lat": "-23.4737959271", "long": "-46.751471031", "branch": "9756", "storeType": "ENCERRADA", "email": "CLAYTONLIMA@CVC.COM.BR"}, {"status": "OK", "classification": "LOJA MIL", "masterBranch": "Nao", "phone": "36213035", "manager": "ANDRE LUIZ SCARINCI BESSA", "address": "RUA 11   JALES SP 15700030", "lat": "-20.2688903809", "long": "-50.5458297729", "branch": "8795", "storeType": "RUA", "email": "eduardoz@cvc.com.br"}, {"status": "OK", "classification": "LOJA MIL", "masterBranch": "Nao", "phone": "36074080", "manager": "ANDRE LUIZ SCARINCI BESSA", "address": "AVENIDA GUANABARA   ANDRADINA SP 16901100", "lat": "-20.8961105347", "long": "-51.3794403076", "branch": "5520", "storeType": "HIPERMERCADO", "email": "JUAREZOLIVEIRA@CVC.COM.BR"}, {"status": "OK", "classification": "LOJA MIL", "masterBranch": "Nao", "phone": "99732370", "manager": "RICHARD ZODRA ANDREAZZA", "address": "AVENIDA TANCREDO NEVES SALA 30 CENTRO SORRISO MT 78890000", "lat": "-23.6190142251", "long": "-46.6102899645", "branch": "2755", "storeType": "SHOPPING", "email": "deboracarvalho@cvc.com.br"}, {"status": "OK", "classification": "LOJA MIL", "masterBranch": "Nao", "phone": "44966234", "manager": "ANDRE LUIZ SCARINCI BESSA", "address": "R JOAO SABIO GONCALVES BOX 04 JARDIM ANA LUIZA ITUPEVA SP 13295000", "lat": "-27.5938915", "long": "-48.461139", "branch": "4891", "storeType": "HIPERMERCADO", "email": "rodrigoramalho@cvc.com.br"}, {"status": "OK", "classification": "LOJA MIL", "masterBranch": "Nao", "phone": "99871210", "manager": "RICHARD ZODRA ANDREAZZA", "address": "AV MAJOR AMARANTE SALA 01 CENTRO VILHENA RO 76980000", "lat": "-12.7405595779", "long": "-60.1458282471", "branch": "4530", "storeType": "GALERIA", "email": "CLENIR@VILHETUR.COM.BR"}, {"status": "OK", "classification": "LOJA MIL", "masterBranch": "Nao", "phone": "99834999", "manager": "RICHARD ZODRA ANDREAZZA", "address": "AVENIDA COUTO MAGALHAES   VARZEA GRANDE MT 78110400", "lat": "-15.6466703415", "long": "-56.1324996948", "branch": "2765", "storeType": "RUA", "email": "gelsa@cvc.com.br"}, {"status": "OK", "classification": "LOJA MIL", "masterBranch": "Nao", "phone": "99860615", "manager": "ANDRE LUIZ SCARINCI BESSA", "address": "RUA SANTA RITA   ITU SP 13300070", "lat": "-21.7102794647", "long": "-47.478061676", "branch": "664", "storeType": "GALERIA", "email": "isisyau@cvc.com.br"}, {"status": "OK", "classification": "LOJA MIL", "masterBranch": "Nao", "phone": "88790159", "manager": "ANDRE LUIZ SCARINCI BESSA", "address": "RUA 7 DE SETEMBRO  TERREO CENTRO ARTUR NOGUEIRA SP 13160000", "lat": "-22.573059082", "long": "-47.1725006104", "branch": "4972", "storeType": "RUA", "email": "sandraamoroso@cvc.com.br"}, {"status": "OK", "classification": "LOJA MIL", "masterBranch": "Nao", "phone": "77121377", "manager": "CLEBER JOSE GUIMARAES JUNIOR", "address": "RUA GENERAL FRANCISCO GLICERIO   SUZANO SP 8674000", "lat": "-23.5470054951", "long": "-46.3130710416", "branch": "6410", "storeType": "RUA", "email": "denisyoshio@cvc.com.br"}, {"status": "OK", "classification": "LOJA MIL", "masterBranch": "Nao", "phone": "84178807", "manager": "ANDRE LUIZ SCARINCI BESSA", "address": "PRACA TEODOMIRO SANTIAGO   ITAJUBA MG 37500036", "lat": "-22.4255599976", "long": "-45.4527816772", "branch": "7940", "storeType": "RUA", "email": "ROBSONJESUS@CVC.COM.BR"}, {"status": "OK", "classification": "LOJA MIL", "masterBranch": "Nao", "phone": "99856267", "manager": "", "address": "AV CORONEL MANCIO LIMA  CENTRO CRUZEIRO DO SUL AC 69980970", "lat": "-7.59990978241", "long": "-72.769493103", "branch": "7410", "storeType": "ENCERRADA", "email": "JANAINAMAIA@CVC.COM.BR"}, {"status": "OK", "classification": "LOJA MIL", "masterBranch": "Nao", "phone": "91748686", "manager": "RICHARD ZODRA ANDREAZZA", "address": "AVENIDA TAMANDARE   CAMPO GRANDE MS 79009790", "lat": "-20.442779541", "long": "-54.6463890076", "branch": "2625", "storeType": "HIPERMERCADO", "email": "patriciapazin@cvc.com.br"}, {"status": "OK", "classification": "LOJA MIL", "masterBranch": "Nao", "phone": "32223200", "manager": "ANDRE LUIZ SCARINCI BESSA", "address": "RUA BASSIN NAGIB TRABULSI   SANTOS SP 11030540", "lat": "-23.984112217", "long": "-46.3078570087", "branch": "9475", "storeType": "RUA", "email": "ricardolima@cvc.com.br"}, {"status": "OK", "classification": "LOJA MIL", "masterBranch": "Nao", "phone": "88051490", "manager": "JOAO PAULO STROPAISSI", "address": "AVENIDA MARECHAL FLORIANO PEIXOTO   CURITIBA PR 80220000", "lat": "-27.10464671", "long": "-52.6138500587", "branch": "1780", "storeType": "HIPERMERCADO", "email": "CARLOSMERCADE@CVC.COM.BR"}, {"status": "OK", "classification": "LOJA MIL", "masterBranch": "Nao", "phone": "92874651", "manager": "RICHARD ZODRA ANDREAZZA", "address": "AVENIDA HISTORIADOR RUBENS DE MENDONCA SALA 05  CUIABA MT 78008000", "lat": "-15.590253368", "long": "-56.0880340976", "branch": "2745", "storeType": "POSTO DE GASOLINA", "email": "arianasantana@cvc.com.br"}, {"status": "OK", "classification": "LOJA MIL", "masterBranch": "Nao", "phone": "48127275", "manager": "ANDRE LUIZ SCARINCI BESSA", "address": "RUA FRANCISCO MIGUEL   CAMPO LIMPO PAULISTA SP 13230001", "lat": "-23.2063903809", "long": "-46.7844390869", "branch": "4850", "storeType": "RUA", "email": "kellypassadori@cvc.com.br"}, {"status": "OK", "classification": "LOJA MIL", "masterBranch": "Nao", "phone": "92551999", "manager": "JOAO PAULO STROPAISSI", "address": "AVENIDA DOUTOR VICTOR DO AMARAL SL04  ARAUCARIA PR 83702040", "lat": "-26.0879001617", "long": "-49.7775993347", "branch": "9390", "storeType": "GALERIA", "email": "samaraandrade@cvc.com.br"}, {"status": "OK", "classification": "LOJA MIL", "masterBranch": "Nao", "phone": "92195095", "manager": "RICHARD ZODRA ANDREAZZA", "address": "RUA PIRACICABA SALA 5 CENTRO PRIMAVERA DO LESTE MT 78850000", "lat": "-15.5588903427", "long": "-54.2961082458", "branch": "2725", "storeType": "RUA", "email": "cleonesia@cvc.com.br"}, {"status": "OK", "classification": "LOJA MIL", "masterBranch": "Nao", "phone": "81199636", "manager": "RICHARD ZODRA ANDREAZZA", "address": "RUA ALMIRANTE BARROSO SALA B  JI-PARANA RO 76900079", "lat": "-10.8339796066", "long": "-61.9601402283", "branch": "4540", "storeType": "RUA", "email": "adalbertogadelha@cvc.com.br"}, {"status": "OK", "classification": "LOJA MIL", "masterBranch": "Nao", "phone": "36429432", "manager": "ANDRE LUIZ SCARINCI BESSA", "address": "RUA DOS EXPEDICIONARIOS   PINDAMONHANGABA SP 12400370", "lat": "-22.9238891602", "long": "-45.4616699219", "branch": "9570", "storeType": "RUA", "email": "luizpera@cvc.com.br"}, {"status": "OK", "classification": "LOJA MIL", "masterBranch": "Nao", "phone": "82265229", "manager": "ANDRE LUIZ SCARINCI BESSA", "address": "RUA QUINZE DE NOVEMBRO LOJA 03  MOCOCA SP 13730020", "lat": "-23.3293209076", "long": "-47.9936103821", "branch": "9741", "storeType": "RUA", "email": "sabrina@cvc.com.br"}, {"status": "OK", "classification": "LOJA MIL", "masterBranch": "Sim", "phone": "", "manager": "", "address": "RUA DOS ANDRADAS LOJA 05  PORTO ALEGRE RS 90020010", "lat": "-30.0330600739", "long": "-51.2299995422", "branch": "6625", "storeType": "GALERIA", "email": "claudiahelena@cvc.com.br"}, {"status": "OK", "classification": "LOJA MIL", "masterBranch": "Nao", "phone": "82265230", "manager": "ANDRE LUIZ SCARINCI BESSA", "address": "RUA BIAS FORTES COMERCIO 02 CENTRO FRUTAL MG 38200000", "lat": "-21.1000003815", "long": "-43.78332901", "branch": "8745", "storeType": "RUA", "email": "gabrielafreitas@cvc.com.br"}, {"status": "OK", "classification": "LOJA MIL", "masterBranch": "Nao", "phone": "32144808", "manager": "ANDRE LUIZ SCARINCI BESSA", "address": "RUA CHAIM MAUAD 100 - LOJA 07  BAURU SP 17012646", "lat": "-22.1651496887", "long": "-49.0713806152", "branch": "4785", "storeType": "HIPERMERCADO", "email": "waltermoreira@cvc.com.br"}, {"status": "OK", "classification": "LOJA MIL", "masterBranch": "Nao", "phone": "47043536", "manager": "LUCIANA BIANCHI FIORONI", "address": "RUA DOMINGOS DE PASCOAL LOJA 31 B  EMBU DAS ARTES SP 6803230", "lat": "-23.6488895416", "long": "-46.8522186279", "branch": "9230", "storeType": "SHOPPING", "email": "carlosanastacio@cvc.com.br"}, {"status": "OK", "classification": "LOJA MIL", "masterBranch": "Nao", "phone": "36074080", "manager": "ANDRE LUIZ SCARINCI BESSA", "address": "AVENIDA SAUDADE SALA COMERCIAL Nº 107 - TERREO   ARACATUBA SP 16020265", "lat": "-24.8978996277", "long": "-48.1473007202", "branch": "5530", "storeType": "HIPERMERCADO", "email": "juarezoliveira@cvc.com.br"}, {"status": "OK", "classification": "LOJA MIL", "masterBranch": "Nao", "phone": "32533909", "manager": "ANDRE LUIZ SCARINCI BESSA", "address": "RUA  PRUDENTE DE MORAES B CENTRO TAQUARITINGA SP 15900000", "lat": "-22.6126327036", "long": "-46.6996424933", "branch": "672", "storeType": "RUA", "email": "mairapirri@cvc.com.br"}, {"status": "OK", "classification": "LOJA MIL", "masterBranch": "Nao", "phone": "81442424", "manager": "ANDRE LUIZ SCARINCI BESSA", "address": "PC DOUTOR ALCIDES MOSCONI  CENTRO ANDRADAS MG 37795000", "lat": "-21.7907462835", "long": "-46.5887120484", "branch": "6387", "storeType": "RUA", "email": "MARCELACANDIOTO@CVC.COM.BR"}, {"status": "OK", "classification": "LOJA MIL", "masterBranch": "Nao", "phone": "37293184", "manager": "ANSELMO  UGIIE  BREVES", "address": "RUA COSTA E SILVA B  PARAGOMINAS PA 68625040", "lat": "-22.8691101074", "long": "-43.1791381836", "branch": "2980", "storeType": "RUA", "email": "margarethballa@CVC.COM.BR"}, {"status": "OK", "classification": "LOJA MIL", "masterBranch": "Nao", "phone": "78135805", "manager": "ANDRE LUIZ SCARINCI BESSA", "address": "RUA MARECHAL DEODORO  CENTRO SAO JOAQUIM DA BARRA SP 14600000", "lat": "-20.5813903809", "long": "-47.8547210693", "branch": "9755", "storeType": "ENCERRADA", "email": "CLAYTONLIMA@CVC.COM.BR"}, {"status": "OK", "classification": "LOJA MIL", "masterBranch": "Nao", "phone": "33961600", "manager": "JOAO PAULO STROPAISSI", "address": "RUA ALBION LOJA 08  PORTO ALEGRE RS 91530010", "lat": "-30.0330600739", "long": "-51.2299995422", "branch": "6685", "storeType": "HIPERMERCADO", "email": "ewertonlanzini@cvc.com.br"}, {"status": "OK", "classification": "LOJA MIL", "masterBranch": "Nao", "phone": "81336600", "manager": "JOAO PAULO STROPAISSI", "address": "AVENIDA PRESIDENTE VARGAS SALA 02  ESTEIO RS 93260004", "lat": "-29.6995040859", "long": "-53.8231153171", "branch": "5370", "storeType": "RUA", "email": "ADAUTOSERAFIM@CVC.COM.BR"}, {"status": "OK", "classification": "LOJA MIL", "masterBranch": "Nao", "phone": "81340974", "manager": "ANDRE LUIZ SCARINCI BESSA", "address": "RUA SETE DE SETEMBRO TERREO - SALA 01 CENTRO CORDEIROPOLIS SP 13490000", "lat": "-22.5609293577", "long": "-47.404491711", "branch": "4979", "storeType": "RUA", "email": "ANGELICABARBEZANI@CVC.COM.BR"}, {"status": "OK", "classification": "LOJA MIL", "masterBranch": "Nao", "phone": "97740752", "manager": "ANDRE LUIZ SCARINCI BESSA", "address": "RUA BAHIA  CENTRO AVARE SP 18700000", "lat": "-23.0925006866", "long": "-48.9874000549", "branch": "4775", "storeType": "RUA", "email": "ovidiojunior@cvc.com.br"}, {"status": "OK", "classification": "LOJA MIL", "masterBranch": "Nao", "phone": "36126250", "manager": "RICHARD ZODRA ANDREAZZA", "address": "RUA PERNAMBUCO  CENTRO LUIS EDUARDO MAGALHAES BA 47850000", "lat": "-12.9109897614", "long": "-38.3310394287", "branch": "8484", "storeType": "RUA", "email": "cvc8484@cvc.com.br"}, {"status": "OK", "classification": "LOJA MIL", "masterBranch": "Nao", "phone": "35328040", "manager": "ANDRE LUIZ SCARINCI BESSA", "address": "RUA PEDRO DE TOLEDO   LINS SP 16400106", "lat": "-24.2747192383", "long": "-47.2327804565", "branch": "4735", "storeType": "HIPERMERCADO", "email": "camilagarcia@cvc.com.br"}, {"status": "OK", "classification": "LOJA MIL", "masterBranch": "Nao", "phone": "20581662", "manager": "VIVIAN CRISTINA ROQUE", "address": "AVENIDA CAPITAO FRANCISCO INACIO   POA SP 8551150", "lat": "-23.5252036903", "long": "-46.3459919741", "branch": "6240", "storeType": "RUA", "email": "edelsonsilva@cvc.com.br"}, {"status": "OK", "classification": "LOJA MIL", "masterBranch": "Nao", "phone": "78666926", "manager": "ANA PAULA TOMAZ MARTINS", "address": "AVENIDA SAO MIGUEL 1006 LOJA1319  SAO PAULO SP 3620000", "lat": "-23.5475006104", "long": "-46.6361083984", "branch": "812", "storeType": "HIPERMERCADO", "email": "RICARDOMARQUES@CVC.COM.BR"}, {"status": "OK", "classification": "LOJA MIL", "masterBranch": "Nao", "phone": "35234161", "manager": "ANSELMO  UGIIE  BREVES", "address": "RUA CEARA   IMPERATRIZ MA 65901610", "lat": "-5.52639007568", "long": "-47.4916687012", "branch": "1831", "storeType": "RUA", "email": "joanasa@cvc.com.br"}, {"status": "OK", "classification": "LOJA MIL", "masterBranch": "Nao", "phone": "92939205", "manager": "RICHARD ZODRA ANDREAZZA", "address": "RUA QUINZE DE NOVEMBRO A  CORUMBA MS 79330000", "lat": "-19.0091705322", "long": "-57.6533317566", "branch": "2615", "storeType": "RUA", "email": "katiafreitas@cvc.com.br"}, {"status": "OK", "classification": "LOJA MIL", "masterBranch": "Nao", "phone": "32223200", "manager": "ANDRE LUIZ SCARINCI BESSA", "address": "RUA DOUTOR OSWALDO CRUZ LOJA 10 E 23  SANTOS SP 11045101", "lat": "-9.62178028114", "long": "-35.7548917777", "branch": "9415", "storeType": "RUA", "email": "ricardolima@cvc.com.br"}, {"status": "OK", "classification": "LOJA MIL", "masterBranch": "Nao", "phone": "32280898", "manager": "JOAO PAULO STROPAISSI", "address": "AVENIDA CRISTOVAO COLOMBO LOJA 102  PORTO ALEGRE RS 90560004", "lat": "-30.0330600739", "long": "-51.2299995422", "branch": "6670", "storeType": "HIPERMERCADO", "email": "ewertonlanzini@cvc.com.br"}, {"status": "OK", "classification": "LOJA MIL", "masterBranch": "Nao", "phone": "77549479", "manager": "RAFAEL ULBANEJO", "address": "AVENIDA MARECHAL TITO   SAO PAULO SP 8115100", "lat": "-23.5475006104", "long": "-46.6361083984", "branch": "881", "storeType": "HIPERMERCADO", "email": "EDELSONSILVA@CVC.COM.BR"}, {"status": "OK", "classification": "LOJA MIL", "masterBranch": "Nao", "phone": "98815154", "manager": "ANSELMO  UGIIE  BREVES", "address": "AVENIDA DOS HOLANDESES LOJA 01  SAO LUIS MA 65075650", "lat": "-2.52972006798", "long": "-44.3027801514", "branch": "1860", "storeType": "MALL", "email": "ricardopestana@cvc.com.br"}, {"status": "OK", "classification": "LOJA MIL", "masterBranch": "Nao", "phone": "35161463", "manager": "JOAO PAULO STROPAISSI", "address": "RUA PEDRO VARGAS  CENTRO CARAZINHO RS 99500000", "lat": "-28.2838897705", "long": "-52.7863883972", "branch": "6691", "storeType": "RUA", "email": "grasielebarcellos@cvc.com.br"}, {"status": "OK", "classification": "LOJA MIL", "masterBranch": "Nao", "phone": "77121378", "manager": "CLEBER JOSE GUIMARAES JUNIOR", "address": "AVENIDA ARMANDO SALLES DE OLIVEIRA LOJA 01  SUZANO SP 8673000", "lat": "-22.7245567792", "long": "-47.6454176842", "branch": "6420", "storeType": "HIPERMERCADO", "email": "denisyoshio@cvc.com.br"}, {"status": "OK", "classification": "LOJA MIL", "masterBranch": "Nao", "phone": "91935392", "manager": "ANSELMO  UGIIE  BREVES", "address": "AVENIDA MELICIO MACHADO LOJA 19  ARACAJU SE 49037440", "lat": "-10.9111099243", "long": "-37.0716705322", "branch": "8280", "storeType": "HIPERMERCADO", "email": "elisianebezerra@cvc.com.br"}, {"status": "OK", "classification": "LOJA MIL", "masterBranch": "Nao", "phone": "21091709", "manager": "JOAO PAULO STROPAISSI", "address": "AVENIDA NOSSA SENHORA DE LOURDES 2º ANDAR - LOJA 6 C  CURITIBA PR 81530020", "lat": "-23.9105606079", "long": "-50.2218093872", "branch": "9340", "storeType": "SHOPPING", "email": "rozanapereira@cvc.com.br"}, {"status": "OK", "classification": "LOJA MIL", "masterBranch": "Nao", "phone": "91794496", "manager": "ANDRE LUIZ SCARINCI BESSA", "address": "RUA PADRE CLARET  CASTELO BATATAIS SP 14300000", "lat": "-20.8911094666", "long": "-47.5849990845", "branch": "9759", "storeType": "RUA", "email": "CLAYTONLIMA@CVC.COM.BR"}, {"status": "OK", "classification": "LOJA MIL", "masterBranch": "Nao", "phone": "92315233", "manager": "RAFAEL ULBANEJO", "address": "AVENIDA CELSO GARCIA BOX 09  SAO PAULO SP 3064000", "lat": "-23.5475006104", "long": "-46.6361083984", "branch": "5460", "storeType": "HIPERMERCADO", "email": "EDSONGONCALVES@CVC.COM.BR"}, {"status": "OK", "classification": "LOJA MIL", "masterBranch": "Nao", "phone": "81515467", "manager": "ANSELMO  UGIIE  BREVES", "address": "AVENIDA DOS HOLANDESES LOJA 01  SAO LUIS MA 65071380", "lat": "-2.52972006798", "long": "-44.3027801514", "branch": "1840", "storeType": "GALERIA", "email": "joaofurtado@cvc.com.br"}, {"status": "OK", "classification": "LOJA MIL", "masterBranch": "Nao", "phone": "32806801", "manager": "", "address": "RUA SATURNINO DE BRITO LOJAS 205  A 207 B  BELO HORIZONTE MG 30111020", "lat": "-19.9208297729", "long": "-43.9377784729", "branch": "1641", "storeType": "ENCERRADA", "email": "EDGARTOLEDO@cvc.com.br"}, {"status": "OK", "classification": "LOJA MIL", "masterBranch": "Nao", "phone": "78649617", "manager": "VIVIAN CRISTINA ROQUE", "address": "AVENIDA BRIGADEIRO FARIA LIMA   GUARULHOS SP 7130000", "lat": "-23.403339386", "long": "-46.5359306335", "branch": "9614", "storeType": "HIPERMERCADO", "email": "suzanapaula@cvc.com.br"}, {"status": "OK", "classification": "LOJA MIL", "masterBranch": "Nao", "phone": "99383008", "manager": "", "address": "RUA JOAO PESSOA CENTER WINITS CENTRO CURRAIS NOVOS RN 59380000", "lat": "-6.26082992554", "long": "-36.517780304", "branch": "2496", "storeType": "GALERIA", "email": "fernandagomes@cvc.com.br"}, {"status": "OK", "classification": "LOJA MIL", "masterBranch": "Nao", "phone": "78636705", "manager": "ANDRE LUIZ SCARINCI BESSA", "address": "RUA PASCHOAL GIANFRANCESCO SALA 16   VARZEA PAULISTA SP 13224700", "lat": "-23.2113895416", "long": "-46.8283309937", "branch": "4890", "storeType": "MALL", "email": "FABIANALIMA@CVC.COM.BR"}, {"status": "OK", "classification": "LOJA MIL", "masterBranch": "Nao", "phone": "30423232", "manager": "RICHARD ZODRA ANDREAZZA", "address": "RUA SHNC SHC/NORTE CL  - QUADRA 308 - BLOCO B - L ASA NORTE BRASILIA DF 70000000", "lat": "-15.7797203064", "long": "-47.9297218323", "branch": "2023", "storeType": "RUA", "email": "lissandraribeiro@cvc.com.br"}, {"status": "OK", "classification": "LOJA MIL", "masterBranch": "Nao", "phone": "78117966", "manager": "RICHARD ZODRA ANDREAZZA", "address": "AVENIDA ANHANGUERA LUC 131  GOIANIA GO 74450010", "lat": "-16.678609848", "long": "-49.2538909912", "branch": "8990", "storeType": "SHOPPING", "email": "edegardmartins@cvc.com.br"}, {"status": "OK", "classification": "LOJA MIL", "masterBranch": "Nao", "phone": "991375647", "manager": "ANDRE LUIZ SCARINCI BESSA", "address": "RUA SAO PAULO  JARDIM SAO FRANCISCO CUBATAO SP 11500000", "lat": "-23.5475006104", "long": "-46.6361083984", "branch": "9425", "storeType": "RUA", "email": "eduardoperez@cvc.com.br"}, {"status": "OK", "classification": "LOJA MIL", "masterBranch": "Nao", "phone": "64996684", "manager": "RICHARD ZODRA ANDREAZZA", "address": "RUA  MARECHAL DEODORO   ITUMBIARA GO 75503210", "lat": "-18.4191703796", "long": "-49.2152786255", "branch": "8903", "storeType": "RUA", "email": "cleuber.c@hotmail.com"}, {"status": "OK", "classification": "LOJA MIL", "masterBranch": "Nao", "phone": "", "manager": "RICARDO ALEXANDRE DOS SANTOS KAISER", "address": "RUA RICARTE SEWAYBRICKER LOJA 23  JANDIRA SP 6600045", "lat": "-23.5408191681", "long": "-46.8957099915", "branch": "7833", "storeType": "SHOPPING", "email": "thiagohenrique@cvc.com.br"}, {"status": "OK", "classification": "LOJA MIL", "masterBranch": "Nao", "phone": "30116311", "manager": "JOAO PAULO STROPAISSI", "address": "RUA JULIO DE CASTILHOS - 5 CENTRO LAJEADO RS 95900000", "lat": "-29.226940155", "long": "-53.6816711426", "branch": "6611", "storeType": "RUA", "email": "brunoguaspari@cvc.com.br"}, {"status": "OK", "classification": "LOJA MIL", "masterBranch": "Nao", "phone": "91276833", "manager": "JOAO PAULO STROPAISSI", "address": "AVENIDA CENTENARIO   CRICIUMA SC 88801001", "lat": "-28.6774997711", "long": "-49.369720459", "branch": "9045", "storeType": "HIPERMERCADO", "email": "amorim@cvc.com.br"}, {"status": "OK", "classification": "LOJA MIL", "masterBranch": "Nao", "phone": "38132426", "manager": "ANDRE LUIZ SCARINCI BESSA", "address": "RUA PRINCESA ISABEL   MOGI GUACU SP 13844060", "lat": "-22.3674201965", "long": "-46.9438896179", "branch": "5140", "storeType": "GALERIA", "email": "larissamunhoz@cvc.com.br"}, {"status": "OK", "classification": "LOJA MIL", "masterBranch": "Nao", "phone": "78647759", "manager": "LUCIANA BIANCHI FIORONI", "address": "AVENIDA INOCENCIO SERAFICO   CARAPICUIBA SP 6380021", "lat": "-23.5230272419", "long": "-46.8354084551", "branch": "9880", "storeType": "MALL", "email": "cvc9880@cvc.com.br"}, {"status": "OK", "classification": "LOJA MIL", "masterBranch": "Nao", "phone": "68438308", "manager": "ANDRE LUIZ SCARINCI BESSA", "address": "AV ANTONIO DE OLIVEIRA  CENTRO MAIRIPORA SP 7600000", "lat": "-23.3208198547", "long": "-46.6325111389", "branch": "7277", "storeType": "RUA", "email": "MAIRIPORA@CVC.COM.BR"}, {"status": "OK", "classification": "LOJA MIL", "masterBranch": "Nao", "phone": "88051490", "manager": "", "address": "AVENIDA JACOB MACANHAN LOJA 13  PINHAIS PR 83324510", "lat": "-25.4144574535", "long": "-49.1808074764", "branch": "1790", "storeType": "ENCERRADA", "email": "evaldoamaral@cvc.com.br"}, {"status": "OK", "classification": "LOJA MIL", "masterBranch": "Nao", "phone": "33480005", "manager": "ANSELMO  UGIIE  BREVES", "address": "TRAVESSA SN-03   ANANINDEUA PA 67133810", "lat": "-1.36556005478", "long": "-48.3722190857", "branch": "2918", "storeType": "RUA", "email": "tonisantiago@cvc.com.br"}, {"status": "OK", "classification": "LOJA MIL", "masterBranch": "Nao", "phone": "35417121", "manager": "RICHARD ZODRA ANDREAZZA", "address": "RUA RUA 12 CHACARA 312A LOTE 36 LOJA 04  BRASILIA DF 72007730", "lat": "-15.7797203064", "long": "-47.9297218323", "branch": "2024", "storeType": "MALL", "email": "henriquesousa@cvc.com.br"}, {"status": "OK", "classification": "LOJA MIL", "masterBranch": "Nao", "phone": "81476216", "manager": "ANDRE LUIZ SCARINCI BESSA", "address": "RUA DOMINGOS FERNANDES ALONSO  CENTRO JOSE BONIFACIO SP 15200000", "lat": "-22.6105613187", "long": "-46.7001610234", "branch": "8725", "storeType": "RUA", "email": "TATIANEANGELINO@cvc.com.br"}, {"status": "OK", "classification": "LOJA MIL", "masterBranch": "Nao", "phone": "32280898", "manager": "JOAO PAULO STROPAISSI", "address": "AVENIDA SERTORIO LOJA 10  PORTO ALEGRE RS 91020001", "lat": "-30.0330600739", "long": "-51.2299995422", "branch": "6695", "storeType": "HIPERMERCADO", "email": "ewertonlanzini@cvc.com.br"}, {"status": "OK", "classification": "LOJA MIL", "masterBranch": "Nao", "phone": "33961600", "manager": "JOAO PAULO STROPAISSI", "address": "AVENIDA PLINIO BRASIL MILANO LOJA 08  PORTO ALEGRE RS 90520000", "lat": "-30.0330600739", "long": "-51.2299995422", "branch": "6675", "storeType": "HIPERMERCADO", "email": "ewertonlanzini@cvc.com.br"}, {"status": "OK", "classification": "LOJA MIL", "masterBranch": "Nao", "phone": "86042464", "manager": "ANA PAULA TOMAZ MARTINS", "address": "AVENIDA DOM PEDRO I   SANTO ANDRE SP 9110001", "lat": "-23.6638908386", "long": "-46.5383300781", "branch": "131", "storeType": "HIPERMERCADO", "email": "fabianalino@cvc.com.br"}, {"status": "OK", "classification": "LOJA MIL", "masterBranch": "Nao", "phone": "33433736", "manager": "ANSELMO  UGIIE  BREVES", "address": "RUA ROMEU MARTINS LOJA 7E CENTRO CANINDE CE 62700000", "lat": "-3.76524002943", "long": "-38.5541692197", "branch": "2587", "storeType": "GALERIA", "email": "karlamonteiro@cvc.com.br"}, {"status": "OK", "classification": "LOJA MIL", "masterBranch": "Nao", "phone": "92186892", "manager": "RICHARD ZODRA ANDREAZZA", "address": "TRAVESSA DR CELSO DE OLIVEIRA SANTOS SETOR CANTANEIRO CENTRAL CENTRO ALTA FLORESTA MT 78580000", "lat": "-10.0199699402", "long": "-56.3028793335", "branch": "2775", "storeType": "RUA", "email": "josianesilva@cvc.com.br"}, {"status": "OK", "classification": "LOJA MIL", "masterBranch": "Nao", "phone": "91616571", "manager": "ANDRE LUIZ SCARINCI BESSA", "address": "AVENIDA PRESIDENTE JUSCELINO KUBITSCHEK DE OLIVE SALA 105  SAO JOSE DO RIO PRETO SP 15092175", "lat": "-20.769109726", "long": "-49.3566894531", "branch": "8785", "storeType": "GALERIA", "email": "Izanascimento@cvc.com.br"}, {"status": "OK", "classification": "LOJA MIL", "masterBranch": "Nao", "phone": "99625051", "manager": "JOAO PAULO STROPAISSI", "address": "RUA BRUSQUE LOJA 5  ITAJAI SC 88303000", "lat": "-26.9575996399", "long": "-49.067199707", "branch": "9055", "storeType": "HIPERMERCADO", "email": "ITAJAI@CVC.COM.BR"}, {"status": "OK", "classification": "LOJA MIL", "masterBranch": "Nao", "phone": "81893634", "manager": "JOAO PAULO STROPAISSI", "address": "AVENIDA JOAO PESSOA LOJA 15 CENTRO MONTENEGRO RS 95780000", "lat": "-7.11499977112", "long": "-34.8630599976", "branch": "5380", "storeType": "RUA", "email": "adautoserafim@cvc.com.br"}, {"status": "OK", "classification": "LOJA MIL", "masterBranch": "Nao", "phone": "968997010", "manager": "RICARDO ALEXANDRE DOS SANTOS KAISER", "address": "AVENIDA PEREIRA BARRETO SALA 11  SAO BERNARDO DO CAMPO SP 9751000", "lat": "-23.6938896179", "long": "-46.5649986267", "branch": "3760", "storeType": "HIPERMERCADO", "email": "daltonpiccolo@cvc.com.br"}, {"status": "OK", "classification": "LOJA MIL", "masterBranch": "Nao", "phone": "93335148", "manager": "JOAO PAULO STROPAISSI", "address": "RUA MARABA SALA 02 CENTRO CAPAO DA CANOA RS 95555000", "lat": "-29.7455596924", "long": "-50.0097198486", "branch": "6601", "storeType": "RUA", "email": "cintia@litoralalternativo.com.br"}, {"status": "OK", "classification": "LOJA MIL", "masterBranch": "Nao", "phone": "94508830", "manager": "ANA PAULA TOMAZ MARTINS", "address": "AVENIDA DO TABOAO   SAO BERNARDO DO CAMPO SP 9655000", "lat": "-23.6938896179", "long": "-46.5649986267", "branch": "3720", "storeType": "HIPERMERCADO", "email": "williampaluan@cvc.com.br"}, {"status": "OK", "classification": "LOJA MIL", "masterBranch": "Nao", "phone": "", "manager": "JOAO PAULO STROPAISSI", "address": "RUA SANTA CATARINA  CENTRO ERECHIM RS 99700000", "lat": "-26.9025001526", "long": "-52.9058303833", "branch": "6645", "storeType": "RUA", "email": "evertonjorge@cvc.com.br"}, {"status": "OK", "classification": "LOJA MIL", "masterBranch": "Nao", "phone": "96311244", "manager": "ANDRE LUIZ SCARINCI BESSA", "address": "RUA REGENTE FEIJO A CENTRO SANTA CRUZ DO RIO PARDO SP 18900000", "lat": "-22.8988895416", "long": "-49.6324996948", "branch": "4770", "storeType": "ENCERRADA", "email": "wagnermoreira@cvc.com.br"}, {"status": "OK", "classification": "LOJA MIL", "masterBranch": "Nao", "phone": "24087090", "manager": "VIVIAN CRISTINA ROQUE", "address": "RUA CLAUDINO BARBOSA LOJA 05  GUARULHOS SP 7113040", "lat": "-23.4627799988", "long": "-46.53332901", "branch": "9680", "storeType": "HIPERMERCADO", "email": "LARA@CVC.COM.BR"}, {"status": "OK", "classification": "LOJA MIL", "masterBranch": "Nao", "phone": "33224044", "manager": "ANSELMO  UGIIE  BREVES", "address": "RODOVIA BR-343 SALA 06  PARNAIBA PI 64204260", "lat": "-7.14910129451", "long": "-43.5983898506", "branch": "7040", "storeType": "GALERIA", "email": "edisaura@gmail.com"}, {"status": "OK", "classification": "LOJA MIL", "masterBranch": "Nao", "phone": "33231071", "manager": "ANSELMO  UGIIE  BREVES", "address": "QUADRA QUATRO RUA FOLHA. 31 QUADRA 04  MARABA PA 68507560", "lat": "-1.36088113651", "long": "-48.4473508008", "branch": "2970", "storeType": "RUA", "email": "wagnervieira@cvc.com.br"}, {"status": "OK", "classification": "LOJA MIL", "masterBranch": "Nao", "phone": "92915677", "manager": "RICHARD ZODRA ANDREAZZA", "address": "RUA BRILHANTE SALA 36  CAMPO GRANDE MS 79006560", "lat": "-20.442779541", "long": "-54.6463890076", "branch": "2680", "storeType": "HIPERMERCADO", "email": "RODRIGOCRISTIANINI@CVC.COM.BR"}, {"status": "OK", "classification": "LOJA MIL", "masterBranch": "Nao", "phone": "", "manager": "JOAO PAULO STROPAISSI", "address": "RUA HUMBERTO DE CAMPOS SALAS 04/05  BLUMENAU SC 89036050", "lat": "-26.9194393158", "long": "-49.0661087036", "branch": "9028", "storeType": "HIPERMERCADO", "email": "andersonlouis@cvc.com.br"}, {"status": "OK", "classification": "LOJA MIL", "masterBranch": "Sim", "phone": "21912482", "manager": "", "address": "RUA FERNANDES VIEIRA   PORTO ALEGRE RS 90035091", "lat": "-30.0330600739", "long": "-51.2299995422", "branch": "440", "storeType": "HIPERMERCADO", "email": "taisekerber@cvc.com.br"}, {"status": "OK", "classification": "LOJA MIL", "masterBranch": "Nao", "phone": "", "manager": "ANDRE LUIZ SCARINCI BESSA", "address": "RUA RIACHUELO SALA 2  SANTA BARBARA D'OESTE SP 13450019", "lat": "-22.753610611", "long": "-47.413608551", "branch": "7240", "storeType": "RUA", "email": "RODRIGUES@CVC.COM.BR"}, {"status": "OK", "classification": "LOJA MIL", "masterBranch": "Nao", "phone": "99141144", "manager": "RICHARD ZODRA ANDREAZZA", "address": "RUA  EMILIO POVOA    CENTRO FORMOSA GO 73800000", "lat": "-16.6534500122", "long": "-49.2599983215", "branch": "2031", "storeType": "RUA", "email": "faturviagens1@gmail.com"}, {"status": "OK", "classification": "LOJA MIL", "masterBranch": "Nao", "phone": "32764044", "manager": "ANSELMO  UGIIE  BREVES", "address": "PRACA DA BANDEIRA  CENTRO PIRIPIRI PI 64260000", "lat": "-22.9119300842", "long": "-43.2148017883", "branch": "7041", "storeType": "RUA", "email": "CLISTENESS@CVC.COM.BR"}, {"status": "OK", "classification": "LOJA MIL", "masterBranch": "Nao", "phone": "97913216", "manager": "ANSELMO  UGIIE  BREVES", "address": "AVENIDA VINTE E NOVE DE DEZEMBRO LOJA 02 SAO CRISTOVAO SANTA CRUZ DO CAPIBARIBE PE 55190000", "lat": "-7.95749998093", "long": "-36.2047195435", "branch": "2361", "storeType": "GALERIA", "email": "priscillanunes@cvc.com.br"}, {"status": "OK", "classification": "LOJA MIL", "masterBranch": "Nao", "phone": "81259294", "manager": "RICHARD ZODRA ANDREAZZA", "address": "QUADRA QN 212 CONJUNTO G LOJA 01  SAMAMBAIA NORTE BRASILIA DF 70165900", "lat": "-15.7797203064", "long": "-47.9297218323", "branch": "2027", "storeType": "RUA", "email": "adrianocardoso@cvc.com.br"}, {"status": "OK", "classification": "LOJA MIL", "masterBranch": "Nao", "phone": "96889727", "manager": "JOAO PAULO STROPAISSI", "address": "RUA PROFESSOR PEDRO VIRIATO PARIGOT DE SOUZA LOJA 1005  CURITIBA PR 81200100", "lat": "-25.43652955", "long": "-49.31520615", "branch": "1717", "storeType": "RUA", "email": "julieluz@cvc.com.br"}, {"status": "OK", "classification": "LOJA MIL", "masterBranch": "Nao", "phone": "97334408", "manager": "ANDRE LUIZ SCARINCI BESSA", "address": "RUA TIRADENTES  BOX 9 CENTRO EXTREMA MG 37640000", "lat": "-22.826499939", "long": "-46.2835083008", "branch": "7282", "storeType": "RUA", "email": "liviafiore@cvc.com.br"}, {"status": "OK", "classification": "LOJA MIL", "masterBranch": "Nao", "phone": "99431996", "manager": "ANSELMO  UGIIE  BREVES", "address": "RUA DOUTOR PEDRO SOARES A CENTRO ESTANCIA SE 49200000", "lat": "-5.85664571813", "long": "-35.2035080147", "branch": "8245", "storeType": "RUA", "email": "jorgeferreira@cvc.com.br"}, {"status": "OK", "classification": "LOJA MIL", "masterBranch": "Nao", "phone": "96713381", "manager": "RICARDO ALEXANDRE DOS SANTOS KAISER", "address": "AVENIDA WALDEMAR CARLOS PEREIRA   SAO PAULO SP 3533001", "lat": "-23.5475006104", "long": "-46.6361083984", "branch": "820", "storeType": "RUA", "email": "cvc820@cvc.com.br"}, {"status": "OK", "classification": "LOJA MIL", "masterBranch": "Nao", "phone": "", "manager": "RICARDO ALEXANDRE DOS SANTOS KAISER", "address": "AVENIDA PEDROSO DE MORAIS   SAO PAULO SP 5420003", "lat": "-23.5475006104", "long": "-46.6361083984", "branch": "1006", "storeType": "RUA", "email": "cvc1006@cvc.com.br"}, {"status": "OK", "classification": "LOJA MIL", "masterBranch": "Nao", "phone": "98587676", "manager": "ANSELMO  UGIIE  BREVES", "address": "RUA PADRE JOAO BAUER LOJA 01  ARACRUZ ES 29190022", "lat": "-22.6131800101", "long": "-46.701073381", "branch": "3652", "storeType": "RUA", "email": "cvc3652@cvc.com.br"}, {"status": "OK", "classification": "LOJA MIL", "masterBranch": "Nao", "phone": "", "manager": "ANDRE LUIZ SCARINCI BESSA", "address": "RUA CUNHAMBEBE LOJA 04 CENTRO UBATUBA SP 11680000", "lat": "-23.433889389", "long": "-45.0711097717", "branch": "9596", "storeType": "RUA", "email": "cvc9596@cvc.com.br"}, {"status": "OK", "classification": "LOJA MIL", "masterBranch": "Nao", "phone": "988242369", "manager": "ANSELMO  UGIIE  BREVES", "address": "AVENIDA GETULIO VARGAS SALAS 11 E 12. GALERIA OASIS   PAULO AFONSO BA 48601000", "lat": "-27.1330985585", "long": "-52.6069899918", "branch": "8494", "storeType": "RUA", "email": "cvc8494@cvc.com.br"}, {"status": "OK", "classification": "LOJA MIL", "masterBranch": "Nao", "phone": "99915112", "manager": "RICHARD ZODRA ANDREAZZA", "address": "AVENIDA GOIAS SUL  SALA 01 SETOR SUL GOIANESIA GO 76380000", "lat": "-14.1513900757", "long": "-48.0783309937", "branch": "8907", "storeType": "RUA", "email": "cvc8907@cvc.com.br"}, {"status": "OK", "classification": "LOJA MIL", "masterBranch": "Nao", "phone": "99693153", "manager": "ANSELMO  UGIIE  BREVES", "address": "RUA JOAQUIM NABUCO   RECIFE PE 52011000", "lat": "-8.05389022827", "long": "-34.881111145", "branch": "2396", "storeType": "RUA", "email": "cvc2396@cvc.com.br"}, {"status": "OK", "classification": "LOJA MIL", "masterBranch": "Nao", "phone": "91748686", "manager": "RICHARD ZODRA ANDREAZZA", "address": "AVENIDA MASCARENHAS DE MORAES   CAMPO GRANDE MS 79010500", "lat": "-20.442779541", "long": "-54.6463890076", "branch": "2655", "storeType": "HIPERMERCADO", "email": "cvc2655@cvc.com.br"}, {"status": "OK", "classification": "LOJA MIL", "masterBranch": "Nao", "phone": "", "manager": "JOAO PAULO STROPAISSI", "address": "AVENIDA XV DE NOVEMBRO LOJA 01 CENTRO CORNELIO PROCOPIO PR 86300000", "lat": "-23.4236915694", "long": "-51.9442930303", "branch": "2180", "storeType": "RUA", "email": "cvc2180@cvc.com.br"}, {"status": "OK", "classification": "LOJA MIL", "masterBranch": "Nao", "phone": "99483369", "manager": "MARCELO NATHANSON", "address": "RUA GOIAS HIPER ABC  DIVINOPOLIS MG 35500001", "lat": "-13.2237796783", "long": "-46.5270385742", "branch": "1312", "storeType": "HIPERMERCADO", "email": "MORATO@CVC.COM.BR"}, {"status": "OK", "classification": "LOJA MIL", "masterBranch": "Nao", "phone": "988330888", "manager": "MARCELO NATHANSON", "address": "RUA PRIMEIRO DE JANEIRO   TIMOTEO MG 35180032", "lat": "-22.9027805328", "long": "-43.2075004578", "branch": "1651", "storeType": "RUA", "email": "leandrorocha@cvc.com.br"}, {"status": "OK", "classification": "LOJA MIL", "masterBranch": "Nao", "phone": "984006874", "manager": "MARCELO NATHANSON", "address": "RUA TEOFILO OTONI   SETE LAGOAS MG 35700007", "lat": "-17.8575000763", "long": "-41.505279541", "branch": "1682", "storeType": "RUA", "email": "cvc1682@cvc.com.br"}, {"status": "OK", "classification": "LOJA MIL", "masterBranch": "Nao", "phone": "98227834", "manager": "ANSELMO  UGIIE  BREVES", "address": "AVENIDA DOUTOR JOSE AUGUSTO MOREIRA LOJA 04  OLINDA PE 53130410", "lat": "-7.97461213815", "long": "-34.8342852237", "branch": "2306", "storeType": "GALERIA", "email": "gabrielaclemente@cvc.com.br"}, {"status": "OK", "classification": "LOJA MIL", "masterBranch": "Nao", "phone": "33445000", "manager": "ANDRE LUIZ SCARINCI BESSA", "address": "RUA AMAZONAS   GUARUJA SP 11450210", "lat": "-24.0", "long": "-46.2666702271", "branch": "9445", "storeType": "MALL", "email": "cvc9445@cvc.com.br"}, {"status": "OK", "classification": "LOJA MIL", "masterBranch": "Nao", "phone": "81392267", "manager": "JOAO PAULO STROPAISSI", "address": "RUA OSVALDO ARANHA SALA 01 CENTRO VENANCIO AIRES RS 95800000", "lat": "-29.6063899994", "long": "-52.1919403076", "branch": "4106", "storeType": "RUA", "email": "rosiclerfischer@cvc.com.br"}, {"status": "OK", "classification": "LOJA MIL", "masterBranch": "Nao", "phone": "941299740", "manager": "ANA PAULA TOMAZ MARTINS", "address": "AVENIDA PRESIDENTE KENNEDY BX 12  DIADEMA SP 9913000", "lat": "-22.5328949346", "long": "-44.1432094879", "branch": "7891", "storeType": "HIPERMERCADO", "email": "liriafernandes@cvc.com.br"}, {"status": "OK", "classification": "LOJA MIL", "masterBranch": "Nao", "phone": "99677918", "manager": "JOAO PAULO STROPAISSI", "address": "RUA FLORIANO PEIXOTO SALA 101 CENTRO IJUI RS 98700000", "lat": "-27.1063103458", "long": "-52.6211562716", "branch": "6612", "storeType": "RUA", "email": "cvc6612@cvc.com.br"}, {"status": "OK", "classification": "LOJA MIL", "masterBranch": "Nao", "phone": "91872955", "manager": "RICHARD ZODRA ANDREAZZA", "address": "QUADRA QUADRA 102 CONJUNTO 4 LOJA 10  BRASILIA DF 72600205", "lat": "-15.8997402191", "long": "-47.7900009155", "branch": "2038", "storeType": "RUA", "email": "cvc2038@cvc.com.br"}, {"status": "OK", "classification": "LOJA MIL", "masterBranch": "Nao", "phone": "99351868", "manager": "ANSELMO  UGIIE  BREVES", "address": "AVENIDA ANTONIO CARLOS MAGALHAES LOJA 13  SALVADOR BA 40260700", "lat": "-12.9900103604", "long": "-38.4735921704", "branch": "8578", "storeType": "HIPERMERCADO", "email": "carinedias@cvc.com.br"}, {"status": "OK", "classification": "LOJA MIL", "masterBranch": "Nao", "phone": "96862382", "manager": "RICHARD ZODRA ANDREAZZA", "address": "AVENIDA BRASIL  CENTRO CAMPO VERDE MT 78840000", "lat": "-10.0", "long": "-55.0", "branch": "2702", "storeType": "RUA", "email": "cvc2702@cvc.com.br"}, {"status": "OK", "classification": "LOJA MIL", "masterBranch": "Nao", "phone": "96111518", "manager": "JOAO PAULO STROPAISSI", "address": "RUA PEDRO GUSSO LOJA 20  CURITIBA PR 81310300", "lat": "-25.4277801514", "long": "-49.273059845", "branch": "9381", "storeType": "MALL", "email": "paulamaestrelli@cvc.com.br"}, {"status": "OK", "classification": "LOJA MIL", "masterBranch": "Nao", "phone": "99744636", "manager": "JOAO PAULO STROPAISSI", "address": "AVENIDA JORGE DARIVA SALA 10 CENTRO OSORIO RS 95520000", "lat": "-29.886174003", "long": "-50.2683640647", "branch": "6608", "storeType": "RUA", "email": "cvc6608@cvc.com.br"}, {"status": "OK", "classification": "LOJA MIL", "masterBranch": "Nao", "phone": "34339066", "manager": "ANDRE LUIZ SCARINCI BESSA", "address": "AVENIDA COMENDADOR LUCIANO GUIDOTTI LOJA 02  PIRACICABA SP 13425000", "lat": "-22.7573319063", "long": "-47.6447382329", "branch": "6375", "storeType": "HIPERMERCADO", "email": "cvc6375@cvc.com.br"}, {"status": "OK", "classification": "LOJA MIL", "masterBranch": "Nao", "phone": "999830164", "manager": "ANSELMO  UGIIE  BREVES", "address": "RUA DO SOL   MACEIO AL 57020070", "lat": "-9.66582965851", "long": "-35.7352790833", "branch": "8670", "storeType": "RUA", "email": "cvc8670@cvc.com.br"}, {"status": "OK", "classification": "LOJA MIL", "masterBranch": "Sim", "phone": "", "manager": "ALIPIO CAMANZANO", "address": "ALAMEDA XINGU   BARUERI SP 6455030", "lat": "-23.510559082", "long": "-46.8761100769", "branch": "1004", "storeType": "INTERNET", "email": "cvc1004@cvc.com.br"}, {"status": "OK", "classification": "LOJA MIL", "masterBranch": "Nao", "phone": "97277840", "manager": "ADRIANO GOMES SANTA ANA", "address": "AVENIDA BRASIL LOJA 208 1-A  RIO DE JANEIRO RJ 21670000", "lat": "-22.9027805328", "long": "-43.2075004578", "branch": "9962", "storeType": "SHOPPING", "email": "MONICASIMAO@CVC.COM.BR"}, {"status": "OK", "classification": "LOJA MIL", "masterBranch": "Nao", "phone": "991658465", "manager": "ANDRE LUIZ SCARINCI BESSA", "address": "RUA PRUDENTE DE MORAES   CACAPAVA SP 12281640", "lat": "-22.6126327036", "long": "-46.6996424933", "branch": "9555", "storeType": "RUA", "email": "cvc9555@cvc.com.br"}, {"status": "OK", "classification": "LOJA MIL", "masterBranch": "Nao", "phone": "982457162", "manager": "CLEBER JOSE GUIMARAES JUNIOR", "address": "RUA JEAN ANASTACE KOVELIS  LOJA 183 BAIRRO IPES CAJAMAR SP 7750000", "lat": "-23.4086332796", "long": "-46.8622570597", "branch": "7872", "storeType": "SHOPPING", "email": "cvc7872@cvc.com.br"}, {"status": "OK", "classification": "LOJA MIL", "masterBranch": "Nao", "phone": "999256509", "manager": "ANSELMO  UGIIE  BREVES", "address": "RUA CORONEL MANOEL VALE C CENTRO CAICO RN 59300000", "lat": "-6.46046977853", "long": "-37.095231705", "branch": "2498", "storeType": "RUA", "email": "cvc2498@cvc.com.br"}, {"status": "OK", "classification": "LOJA MIL", "masterBranch": "Nao", "phone": "91568731", "manager": "ANSELMO  UGIIE  BREVES", "address": "RUA ARTHUR DE AZEVEDO MACHADO LOJA 1004  SALVADOR BA 41760000", "lat": "-12.9711103439", "long": "-38.5108299255", "branch": "8525", "storeType": "HIPERMERCADO", "email": "iurisouza@cvc.com.br"}, {"status": "OK", "classification": "LOJA MIL", "masterBranch": "Nao", "phone": "94734488", "manager": "JOAO PAULO STROPAISSI", "address": "RUA FREI BENJAMIM SALA 06 CENTRO MARAU RS 99150000", "lat": "-7.18736183207", "long": "-35.6804489758", "branch": "3376", "storeType": "RUA", "email": "cristinazalamena@cvc.com.br"}, {"status": "OK", "classification": "LOJA MIL", "masterBranch": "Nao", "phone": "999048410", "manager": "ANSELMO  UGIIE  BREVES", "address": "RUA MANOEL PEREIRA DA SILVA LOJA 2  SERRA TALHADA PE 56903490", "lat": "-23.5071212546", "long": "-46.8102498161", "branch": "2333", "storeType": "HIPERMERCADO", "email": "cvc2333@cvc.com.br"}, {"status": "OK", "classification": "LOJA MIL", "masterBranch": "Nao", "phone": "996747634", "manager": "JOAO PAULO STROPAISSI", "address": "AVENIDA CANDIDO HARTMANN LOJA 04  CURITIBA PR 80710570", "lat": "-25.4277801514", "long": "-49.273059845", "branch": "1729", "storeType": "MALL", "email": "cvc1729@cvc.com.br"}, {"status": "OK", "classification": "LOJA MIL", "masterBranch": "Nao", "phone": "997745494", "manager": "ANDRE LUIZ SCARINCI BESSA", "address": "RUA BARAO DE MAUA LOJA 02  VALINHOS SP 13276080", "lat": "-3.0368319", "long": "-60.0095514", "branch": "653", "storeType": "RUA", "email": "cvc653@cvc.com.br"}, {"status": "OK", "classification": "LOJA MIL", "masterBranch": "Nao", "phone": "99191046", "manager": "JOAO PAULO STROPAISSI", "address": "RUA JOSE DE ALENCAR   PORTO ALEGRE RS 90880480", "lat": "-30.0330600739", "long": "-51.2299995422", "branch": "3321", "storeType": "HIPERMERCADO", "email": "cvc3321@cvc.com.br"}, {"status": "OK", "classification": "LOJA MIL", "masterBranch": "Nao", "phone": "980048624", "manager": "ADRIANO GOMES SANTA ANA", "address": "RUA CORONEL CARVALHO LOJA 3  ANGRA DOS REIS RJ 23900310", "lat": "-23.0066699982", "long": "-44.3180618286", "branch": "9977", "storeType": "RUA", "email": "cvc9977@cvc.com.br"}, {"status": "OK", "classification": "LOJA MIL", "masterBranch": "Nao", "phone": "999623408", "manager": "ADRIANO GOMES SANTA ANA", "address": "ESTRADA DO GALEAO LOJA M  RIO DE JANEIRO RJ 21931522", "lat": "-22.9027805328", "long": "-43.2075004578", "branch": "9803", "storeType": "RUA", "email": "cvc9803@cvc.com.br"}, {"status": "OK", "classification": "LOJA MIL", "masterBranch": "Nao", "phone": "998587676", "manager": "ANSELMO  UGIIE  BREVES", "address": "RUA 15 DE NOVEMBRO   CARIACICA ES 29146270", "lat": "-22.8966412303", "long": "-43.1196310679", "branch": "3625", "storeType": "RUA", "email": "fernanda.3620@cvc.com.br"}, {"status": "OK", "classification": "LOJA MIL", "masterBranch": "Nao", "phone": "991629539", "manager": "JOAO PAULO STROPAISSI", "address": "AVENIDA JUCA BATISTA SUC 127  PORTO ALEGRE RS 91755000", "lat": "-30.0330600739", "long": "-51.2299995422", "branch": "3361", "storeType": "MALL", "email": "cvc3361@cvc.com.br"}, {"status": "OK", "classification": "LOJA MIL", "masterBranch": "Nao", "phone": "999158850", "manager": "ANSELMO  UGIIE  BREVES", "address": "RUA AREOLINO DE ABREU LOJA 02 CENTRO FLORIANO PI 64800000", "lat": "-5.08812915284", "long": "-42.8139515233", "branch": "7061", "storeType": "HIPERMERCADO", "email": "cvc7061@cvc.com.br"}, {"status": "OK", "classification": "LOJA MIL", "masterBranch": "Nao", "phone": "91010549", "manager": "JOAO PAULO STROPAISSI", "address": "RUA PROFESSOR CLETO   CENTRO UNIAO DA VITORIA PR 84600000", "lat": "-26.2299995422", "long": "-51.086391449", "branch": "3580", "storeType": "RUA", "email": "cvc3580@cvc.com.br"}, {"status": "OK", "classification": "LOJA MIL", "masterBranch": "Nao", "phone": "981112800", "manager": "JOAO PAULO STROPAISSI", "address": "RUA ALFREDO CHAVES LOJA 05  CAXIAS DO SUL RS 95020460", "lat": "-29.1680603027", "long": "-51.1794395447", "branch": "6667", "storeType": "MALL", "email": "cvc6667@cvc.com.br"}, {"status": "OK", "classification": "LOJA MIL", "masterBranch": "Nao", "phone": "991239660", "manager": "ANSELMO  UGIIE  BREVES", "address": "RUA CONSELHEIRO DANTAS LOJA 03 SERRINHA SERRINHA BA 48700000", "lat": "-16.382730484", "long": "-39.5967216492", "branch": "8552", "storeType": "RUA", "email": "cvc8552@cvc.com.br"}, {"status": "OK", "classification": "LOJA MIL", "masterBranch": "Nao", "phone": "992315233", "manager": "RAFAEL ULBANEJO", "address": "AVENIDA CASSANDOCA LOJA 8  SAO PAULO SP 3169010", "lat": "-23.5475006104", "long": "-46.6361083984", "branch": "5470", "storeType": "HIPERMERCADO", "email": "cvc5470@cvc.com.br"}, {"status": "OK", "classification": "LOJA MIL", "masterBranch": "Nao", "phone": "30338200", "manager": "RICHARD ZODRA ANDREAZZA", "address": "QUADRA QUADRA 29 LOJA  BRASILIA DF 71573000", "lat": "-15.8997402191", "long": "-47.7900009155", "branch": "2036", "storeType": "RUA", "email": "vivianecristina.2023@cvc.com.br"}, {"status": "OK", "classification": "LOJA MIL", "masterBranch": "Nao", "phone": "33961666", "manager": "JOAO PAULO STROPAISSI", "address": "RUA SETE DE SETEMBRO SALA 01  CACHOEIRA DO SUL RS 96508011", "lat": "-10.2166700363", "long": "-61.8833312988", "branch": "4107", "storeType": "RUA", "email": "cvc4107@cvc.com.br"}, {"status": "OK", "classification": "LOJA MIL", "masterBranch": "Nao", "phone": "984920051", "manager": "ADRIANO GOMES SANTA ANA", "address": "PRACA CARLOS GIANELLI   SAO GONCALO RJ 24710465", "lat": "-22.9693393707", "long": "-43.4247817993", "branch": "9985", "storeType": "SHOPPING", "email": "cvc9985@cvc.com.br"}, {"status": "OK", "classification": "LOJA MIL", "masterBranch": "Nao", "phone": "99732370", "manager": "RICHARD ZODRA ANDREAZZA", "address": "AVENIDA NATALINO JOAO BRESCANSIN  SALA 01 CENTRO SORRISO MT 78890000", "lat": "-12.5369526762", "long": "-55.7356027985", "branch": "2707", "storeType": "RUA", "email": "DEBORALOPES@CVC.COM.BR"}, {"status": "OK", "classification": "LOJA MIL", "masterBranch": "Nao", "phone": "999530630", "manager": "ANSELMO  UGIIE  BREVES", "address": "AVENIDA JERONIMO MONTEIRO LOJA 02  VILA VELHA ES 29122725", "lat": "-20.3297195435", "long": "-40.2924995422", "branch": "3671", "storeType": "RUA", "email": "cvc3671@cvc.com.br"}, {"status": "OK", "classification": "LOJA MIL", "masterBranch": "Nao", "phone": "981121739", "manager": "ANSELMO  UGIIE  BREVES", "address": "RUA ALFREDO BELEZA   CAXIAS MA 65604055", "lat": "-23.5263063219", "long": "-46.4603729298", "branch": "1805", "storeType": "RUA", "email": "cvc1805@cvc.com.br"}, {"status": "OK", "classification": "LOJA MIL", "masterBranch": "Nao", "phone": "964881896", "manager": "ADRIANO GOMES SANTA ANA", "address": "AVENIDA AVENIDA CAIOABA   MAGE RJ 25931742", "lat": "-22.5328949346", "long": "-44.1432094879", "branch": "9978", "storeType": "RUA", "email": "cvc9978@cvc.com.br"}, {"status": "OK", "classification": "LOJA MIL", "masterBranch": "Nao", "phone": "43300300", "manager": "RICARDO ALEXANDRE DOS SANTOS KAISER", "address": "AVENIDA PERY RONCHETTI LOJA 02  SAO BERNARDO DO CAMPO SP 9771001", "lat": "-23.6938896179", "long": "-46.5649986267", "branch": "3828", "storeType": "HIPERMERCADO", "email": "cvc3828@cvc.com.br"}, {"status": "OK", "classification": "LOJA MIL", "masterBranch": "Nao", "phone": "997864628", "manager": "ANDRE LUIZ SCARINCI BESSA", "address": "RUA CATARINA ETSUCO UMEZU BOX 02 CENTRO SANTA CRUZ DO RIO PARDO SP 18900000", "lat": "-22.8988895416", "long": "-49.6324996948", "branch": "4778", "storeType": "HIPERMERCADO", "email": "giseleneves@cvc.com.br"}, {"status": "OK", "classification": "LOJA MIL", "masterBranch": "Nao", "phone": "988914435", "manager": "ANDRE LUIZ SCARINCI BESSA", "address": "AVENIDA EMILIO BOSCO SALA 7-A  SUMARE SP 13179180", "lat": "-22.8260787211", "long": "-47.1680684859", "branch": "4989", "storeType": "HIPERMERCADO", "email": "eduardomendes@cvc.com.br"}, {"status": "OK", "classification": "LOJA MIL", "masterBranch": "Nao", "phone": "991322057", "manager": "ANSELMO  UGIIE  BREVES", "address": "AVENIDA DOUTOR HUGO DE MENDONCA PONTO 128  ITAITUBA PA 68180005", "lat": "-4.27611017227", "long": "-55.9836082458", "branch": "2956", "storeType": "GALERIA", "email": "cvc2956@cvc.com.br"}, {"status": "OK", "classification": "LOJA MIL", "masterBranch": "Nao", "phone": "999211144", "manager": "ANSELMO  UGIIE  BREVES", "address": "RUA BERNARDO VIEIRA DE MELO   CARPINA PE 55815100", "lat": "-8.0583224454", "long": "-34.8707850613", "branch": "2344", "storeType": "RUA", "email": "cvc2344@cvc.com.br"}, {"status": "OK", "classification": "LOJA MIL", "masterBranch": "Nao", "phone": "984072928", "manager": "RICHARD ZODRA ANDREAZZA", "address": "AVENIDA EPHIGENIO SALLES LOJA A007 - BOULEVARD MUNDI  MANAUS AM 69060020", "lat": "-3.10193991661", "long": "-60.0250015259", "branch": "3902", "storeType": "MALL", "email": "cvc3902@cvc.com.br"}, {"status": "OK", "classification": "LOJA MIL", "masterBranch": "Nao", "phone": "999250092", "manager": "RICHARD ZODRA ANDREAZZA", "address": "QUADRA QNM 11 LOTE 6  BRASILIA DF 72215110", "lat": "-15.7797203064", "long": "-47.9297218323", "branch": "2037", "storeType": "HIPERMERCADO", "email": "manuelpalhares@cvc.com.br"}, {"status": "OK", "classification": "LOJA MIL", "masterBranch": "Nao", "phone": "991789581", "manager": "ANDRE LUIZ SCARINCI BESSA", "address": "RUA SAO SEBASTIAO LOJA 02  SAO CARLOS SP 13560230", "lat": "-22.0174999237", "long": "-47.8908309937", "branch": "6396", "storeType": "MALL", "email": "cvc6396@cvc.com.br"}, {"status": "OK", "classification": "LOJA MIL", "masterBranch": "Nao", "phone": "", "manager": "JOAO PAULO STROPAISSI", "address": "RUA SETE DE SETEMBRO LOJA 01  CAMPO LARGO PR 83601170", "lat": "-25.5299396515", "long": "-49.3162612915", "branch": "9311", "storeType": "RUA", "email": "cvc9311@cvc.com.br"}, {"status": "OK", "classification": "LOJA MIL", "masterBranch": "Nao", "phone": "981199949", "manager": "ANSELMO  UGIIE  BREVES", "address": "AVENIDA CENTRAL   SERRA ES 29165130", "lat": "-8.0832901001", "long": "-34.9260215759", "branch": "3661", "storeType": "RUA", "email": "cvc3661@cvc.com.br"}, {"status": "OK", "classification": "LOJA MIL", "masterBranch": "Nao", "phone": "91912859", "manager": "JOAO PAULO STROPAISSI", "address": "RUA BARAO DO RIO BRANCO LOJA 116A CENTRO SAO FRANCISCO DO SUL SC 89240000", "lat": "-26.0718002319", "long": "-49.2831001282", "branch": "9127", "storeType": "GALERIA", "email": "williansbarbosa@cvc.com.br"}, {"status": "OK", "classification": "LOJA MIL", "masterBranch": "Nao", "phone": "964438794", "manager": "ADRIANO GOMES SANTA ANA", "address": "RODOVIA WASHINGTON LUIZ  LOJA  204 I  DUQUE DE CAXIAS RJ 25085008", "lat": "-22.7855606079", "long": "-43.311668396", "branch": "9971", "storeType": "SHOPPING", "email": "cvc9971@cvc.com.br"}, {"status": "OK", "classification": "LOJA MIL", "masterBranch": "Nao", "phone": "994378731", "manager": "ANSELMO  UGIIE  BREVES", "address": "RUA BERNARDO VIEIRA DE MELO LOJA 01 E 02 - SHOPPING YAPOATAN  JABOATAO DOS GUARARAPES PE 54080310", "lat": "-8.11277961731", "long": "-35.0147209167", "branch": "2305", "storeType": "GALERIA", "email": "cvc2305@cvc.com.br"}, {"status": "OK", "classification": "LOJA MIL", "masterBranch": "Nao", "phone": "", "manager": "ANSELMO  UGIIE  BREVES", "address": "RUA DOIS DE FEVEREIRO   CANDEIAS BA 43805200", "lat": "-30.026105644", "long": "-51.1233982351", "branch": "8472", "storeType": "RUA", "email": "martalobo@cvc.com.br"}, {"status": "OK", "classification": "LOJA MIL", "masterBranch": "Nao", "phone": "99574024", "manager": "JOAO PAULO STROPAISSI", "address": "RUA DUQUE DE CAXIAS  CENTRO ROLANDIA PR 86600000", "lat": "-22.611567018", "long": "-46.7025343571", "branch": "2170", "storeType": "RUA", "email": "cvc2170@cvc.com.br"}, {"status": "OK", "classification": "LOJA MIL", "masterBranch": "Nao", "phone": "84123507", "manager": "RICHARD ZODRA ANDREAZZA", "address": "QUADRA QN 5 CONJUNTO 7 02-A  BRASILIA DF 71805407", "lat": "-15.7797203064", "long": "-47.9297218323", "branch": "2034", "storeType": "RUA", "email": "adrianocardoso@cvc.com.br"}, {"status": "OK", "classification": "LOJA MIL", "masterBranch": "Nao", "phone": "91265989", "manager": "MARCELO NATHANSON", "address": "AVENIDA  BRASIL  CENTRO LAGOA DA PRATA MG 35590000", "lat": "-20.0224990845", "long": "-45.5436096191", "branch": "1275", "storeType": "RUA", "email": "cvc1275@cvc.com.br"}, {"status": "OK", "classification": "LOJA MIL", "masterBranch": "Nao", "phone": "33037424", "manager": "ANSELMO  UGIIE  BREVES", "address": "AVENIDA MARIO ANDREAZZA LOJA 10  SAO LUIS MA 65068500", "lat": "-2.52972006798", "long": "-44.3027801514", "branch": "1888", "storeType": "GALERIA", "email": "cvc1888@cvc.com.br"}, {"status": "OK", "classification": "LOJA MIL", "masterBranch": "Nao", "phone": "81638141", "manager": "JOAO PAULO STROPAISSI", "address": "RUA NEREU RAMOS  CENTRO IMBITUBA SC 88780000", "lat": "-26.6238098145", "long": "-49.5161781311", "branch": "9065", "storeType": "RUA", "email": "eversongoncalves@cvc.com.br"}, {"status": "OK", "classification": "LOJA MIL", "masterBranch": "Nao", "phone": "35332644", "manager": "JOAO PAULO STROPAISSI", "address": "RUA  SAUL BRANDALISE SALA 01 - TERREO  CENTRO VIDEIRA SC 89560000", "lat": "-27.6281474959", "long": "-48.6698283419", "branch": "9026", "storeType": "RUA", "email": "juliane.9004@cvc.com.br"}, {"status": "OK", "classification": "LOJA MIL", "masterBranch": "Nao", "phone": "91110331", "manager": "JOAO PAULO STROPAISSI", "address": "AVENIDA  JOAO SACAVEM SALA 03/04 CENTRO NAVEGANTES SC 88375000", "lat": "-26.8177394867", "long": "-48.7346801758", "branch": "9054", "storeType": "RUA", "email": "cvc9054@cvc.com.br"}, {"status": "OK", "classification": "LOJA MIL", "masterBranch": "Nao", "phone": "30350450", "manager": "", "address": "AVENIDA BRIGADEIRO FARIA LIMA SALAO EDIF LIEGE  SAO PAULO SP 1451001", "lat": "-23.5475006104", "long": "-46.6361083984", "branch": "1021", "storeType": "RUA", "email": "cvc1021@cvc.com.br"}, {"status": "OK", "classification": "LOJA MIL", "masterBranch": "Nao", "phone": "999159950", "manager": "ANSELMO  UGIIE  BREVES", "address": "AVENIDA SENADOR HELVIDIO NUNES   PICOS PI 64607085", "lat": "-7.07694005966", "long": "-41.4669418335", "branch": "7060", "storeType": "HIPERMERCADO", "email": "castroneto@cvc.com.br"}, {"status": "OK", "classification": "LOJA MIL", "masterBranch": "Nao", "phone": "96190780", "manager": "JOAO PAULO STROPAISSI", "address": "RUA MAJOR JOSE LUCIANO LOJA 03  PIRAQUARA PR 83301540", "lat": "-22.8997105418", "long": "-47.0853430181", "branch": "9393", "storeType": "RUA", "email": "cvc9393@cvc.com.br"}, {"status": "OK", "classification": "LOJA MIL", "masterBranch": "Nao", "phone": "81341369", "manager": "RICHARD ZODRA ANDREAZZA", "address": "AVENIDA 25 DE AGOSTO  CENTRO ROLIM DE MOURA RO 76940000", "lat": "-13.0827102661", "long": "-62.2772598267", "branch": "4570", "storeType": "RUA", "email": "diovaneotavio@cvc.com.br"}, {"status": "OK", "classification": "LOJA MIL", "masterBranch": "Nao", "phone": "999812679", "manager": "ANSELMO  UGIIE  BREVES", "address": "RUA RUA DORGIVAL PINHEIRO DE SOUSA  CENTRO ACAILANDIA MA 65930000", "lat": "-5.51610950645", "long": "-47.4659518349", "branch": "1815", "storeType": "RUA", "email": "cvc1815@cvc.com.br"}, {"status": "OK", "classification": "LOJA MIL", "masterBranch": "Nao", "phone": "998209170", "manager": "ADRIANO GOMES SANTA ANA", "address": "AVENIDA CARDOSO MOREIRA LOJA 108 CENTRO ITAPERUNA RJ 28300000", "lat": "-21.4883308411", "long": "-41.6155586243", "branch": "9976", "storeType": "MALL", "email": "cvc9976@cvc.com.br"}, {"status": "OK", "classification": "LOJA MIL", "masterBranch": "Nao", "phone": "99647991", "manager": "JOAO PAULO STROPAISSI", "address": "RUA DOUTOR JOAO COLIN SALA 09C  JOINVILLE SC 89204002", "lat": "-26.3005739599", "long": "-48.8478701232", "branch": "9125", "storeType": "HIPERMERCADO", "email": "innes@cvc.com.br"}, {"status": "OK", "classification": "LOJA MIL", "masterBranch": "Nao", "phone": "988049825", "manager": "ANSELMO  UGIIE  BREVES", "address": "AVENIDA CAMINHO DE AREIA EDF EMPRESARIAL TIRADENTES LOJA H  SALVADOR BA 40440360", "lat": "-12.9711103439", "long": "-38.5108299255", "branch": "8420", "storeType": "RUA", "email": "cvc8420@cvc.com.br"}, {"status": "OK", "classification": "LOJA MIL", "masterBranch": "Nao", "phone": "428813618", "manager": "JOAO PAULO STROPAISSI", "address": "AVENIDA HORACIO KLABIN SALA 02  TELEMACO BORBA PR 84261000", "lat": "-24.3178005219", "long": "-50.651599884", "branch": "2190", "storeType": "RUA", "email": "cvc2190@cvc.com.br"}, {"status": "OK", "classification": "LOJA MIL", "masterBranch": "Nao", "phone": "91895184", "manager": "ANSELMO  UGIIE  BREVES", "address": "AVENIDA SENADOR JOAO CAMARA SALA 05 DOM ELIZEU ACU RN 59650000", "lat": "-5.57737290879", "long": "-36.9299665931", "branch": "2497", "storeType": "RUA", "email": "andreamedeiros@cvc.com.br"}, {"status": "OK", "classification": "LOJA MIL", "masterBranch": "Nao", "phone": "98491488", "manager": "ADRIANO GOMES SANTA ANA", "address": "RUA FELIPE CARDOSO   RIO DE JANEIRO RJ 23515000", "lat": "-22.9027805328", "long": "-43.2075004578", "branch": "9964", "storeType": "SHOPPING", "email": "cristinaalmeida@cvc.com.br"}, {"status": "OK", "classification": "LOJA MIL", "masterBranch": "Nao", "phone": "99785512", "manager": "JOAO PAULO STROPAISSI", "address": "RUA VOLUNTARIOS DA PATRIA SALA 07 CENTRO CRUZ ALTA RS 98000000", "lat": "-23.4874969932", "long": "-46.6265013214", "branch": "6609", "storeType": "RUA", "email": "cvc6609@cvc.com.br"}, {"status": "OK", "classification": "LOJA MIL", "masterBranch": "Nao", "phone": "99606061", "manager": "ANSELMO  UGIIE  BREVES", "address": "RUA FLORIANO PEIXOTO LOJA A  IGUATU CE 63500071", "lat": "-5.08971977234", "long": "-39.0400009155", "branch": "2596", "storeType": "RUA", "email": "claudioreges@cvc.com.br"}, {"status": "OK", "classification": "LOJA MIL", "masterBranch": "Nao", "phone": "999288899", "manager": "ANDRE LUIZ SCARINCI BESSA", "address": "RUA R: DR CAMPOS SALLES SALA 2 CENTRO SOCORRO SP 13960000", "lat": "-21.1834861116", "long": "-47.8076397198", "branch": "7290", "storeType": "RUA", "email": "cvc7290@cvc.com.br"}, {"status": "OK", "classification": "LOJA MIL", "masterBranch": "Nao", "phone": "982457162", "manager": "CLEBER JOSE GUIMARAES JUNIOR", "address": "RUA DA QUITANDA   SAO PAULO SP 1012010", "lat": "-23.5475006104", "long": "-46.6361083984", "branch": "7502", "storeType": "RUA", "email": "cvc7502@cvc.com.br"}, {"status": "OK", "classification": "LOJA MIL", "masterBranch": "Nao", "phone": "88051490", "manager": "JOAO PAULO STROPAISSI", "address": "AVENIDA MANOEL RIBAS   CURITIBA PR 82400000", "lat": "-25.4277801514", "long": "-49.273059845", "branch": "9315", "storeType": "RUA", "email": "carlosmercade@cvc.com.br"}, {"status": "OK", "classification": "LOJA MIL", "masterBranch": "Sim", "phone": "999040328", "manager": "ALIPIO CAMANZANO", "address": "PRACA GALDINO RAMOS DA SILVA ED. GRAN PLAZA 1  1º ANDAR  SANTO ANDRE SP 9080050", "lat": "-20.4767831771", "long": "-54.6185254275", "branch": "1020", "storeType": "INTERNET", "email": "cvc1020@cvc.com.br"}, {"status": "OK", "classification": "LOJA MIL", "masterBranch": "Nao", "phone": "999530630", "manager": "ANSELMO  UGIIE  BREVES", "address": "AVENIDA NOSSA SENHORA DA PENHA LOJA 19  VITORIA ES 29057565", "lat": "-20.2928150657", "long": "-40.3020201463", "branch": "3623", "storeType": "MALL", "email": "leilaverrone@cvc.com.br"}, {"status": "OK", "classification": "LOJA MIL", "masterBranch": "Nao", "phone": "88187373", "manager": "JOAO PAULO STROPAISSI", "address": "RUA BRASILIA LOJA 4 NOVO MUNDO CURITIBA PR 80000000", "lat": "-15.7797203064", "long": "-47.9297218323", "branch": "1771", "storeType": "MALL", "email": "luizcarvalho@cvc.com.br"}, {"status": "OK", "classification": "LOJA MIL", "masterBranch": "Nao", "phone": "28580599", "manager": "CLEBER JOSE GUIMARAES JUNIOR", "address": "RUA VERBO DIVINO BOX 1  SAO PAULO SP 4719001", "lat": "-23.6333007812", "long": "-46.7048797607", "branch": "4641", "storeType": "HIPERMERCADO", "email": "JOAOFAQUIANO@CVC.COM.BR"}, {"status": "OK", "classification": "LOJA MIL", "masterBranch": "Nao", "phone": "964392240", "manager": "ADRIANO GOMES SANTA ANA", "address": "RUA DOS LIRIOS   MARICA RJ 24936120", "lat": "-23.538622573", "long": "-46.4682529965", "branch": "9961", "storeType": "MALL", "email": "cvc9961@cvc.com.br"}, {"status": "OK", "classification": "LOJA MIL", "masterBranch": "Nao", "phone": "32534400", "manager": "RICHARD ZODRA ANDREAZZA", "address": "QUADRA SHIS QI 11 BLOCO O1 ED. COMERCIAL GILBERTINHO  BRASILIA DF 71625640", "lat": "-15.7797203064", "long": "-47.9297218323", "branch": "2029", "storeType": "RUA", "email": "fabiodosanjos@cvc.com.br"}, {"status": "OK", "classification": "LOJA MIL", "masterBranch": "Nao", "phone": "96027070", "manager": "JOAO PAULO STROPAISSI", "address": "AVENIDA GETULIO VARGAS  CENTRO SANTIAGO RS 97700000", "lat": "-27.1330985585", "long": "-52.6069899918", "branch": "3375", "storeType": "RUA", "email": "cvc3375@cvc.com.br"}, {"status": "OK", "classification": "LOJA MIL", "masterBranch": "Nao", "phone": "981054003", "manager": "JOAO PAULO STROPAISSI", "address": "RUA CORONEL ALCANTARA  CENTRO JACAREZINHO PR 86400000", "lat": "-9.2744439", "long": "-35.7263334", "branch": "2151", "storeType": "RUA", "email": "cvc2151@cvc.com.br"}, {"status": "OK", "classification": "LOJA MIL", "masterBranch": "Nao", "phone": "999742004", "manager": "RICHARD ZODRA ANDREAZZA", "address": "AVENIDA AV. INDEPENDENCIA QUADRA 51. LOTE  CENTRO BRASILIA DF 70000000", "lat": "-15.7797203064", "long": "-47.9297218323", "branch": "2035", "storeType": "RUA", "email": "cvc2035@cvc.com.br"}, {"status": "OK", "classification": "LOJA MIL", "masterBranch": "Nao", "phone": "981238920", "manager": "RICHARD ZODRA ANDREAZZA", "address": "RUA JOAO PEDRO DE SOUZA LOJA 05  CAMPO GRANDE MS 79004680", "lat": "-20.442779541", "long": "-54.6463890076", "branch": "2665", "storeType": "RUA", "email": "waniaespindola@cvc.com.br"}, {"status": "OK", "classification": "LOJA PADRAO", "masterBranch": "Nao", "phone": "36311109", "manager": "ANDRE LUIZ SCARINCI BESSA", "address": "AVENIDA DONA GERTRUDES   SAO JOAO DA BOA VISTA SP 13870110", "lat": "-22.6388893127", "long": "-47.4550018311", "branch": "690", "storeType": "RUA", "email": "sabrina@cvc.com.br"}, {"status": "OK", "classification": "LOJA PADRAO", "masterBranch": "Nao", "phone": "88330888", "manager": "MARCELO NATHANSON", "address": "RUA MARIANA LJ 2  IPATINGA MG 35160018", "lat": "-19.4683303833", "long": "-42.5366706848", "branch": "1650", "storeType": "RUA", "email": "leandrorocha@cvc.com.br"}, {"status": "OK", "classification": "LOJA PADRAO", "masterBranch": "Nao", "phone": "21031666", "manager": "ANSELMO  UGIIE  BREVES", "address": "AVENIDA TANCREDO NEVES PISO L 1 LJ 1120  SALVADOR BA 41820021", "lat": "-12.9711103439", "long": "-38.5108299255", "branch": "8535", "storeType": "SHOPPING", "email": "francisconasc@cvc.com.br"}, {"status": "OK", "classification": "LOJA PADRAO", "masterBranch": "Nao", "phone": "81442424", "manager": "ANDRE LUIZ SCARINCI BESSA", "address": "RUA RAFAEL DE BARROS   LEME SP 13610200", "lat": "-23.5730094254", "long": "-46.6475061074", "branch": "6389", "storeType": "RUA", "email": "helenlopes@cvc.com.br"}, {"status": "OK", "classification": "LOJA PADRAO", "masterBranch": "Nao", "phone": "77174403", "manager": "ANA PAULA TOMAZ MARTINS", "address": "AVENIDA FRANCISCO PRESTES MAIA TERREO  SAO BERNARDO DO CAMPO SP 9770000", "lat": "-23.6938896179", "long": "-46.5649986267", "branch": "3710", "storeType": "RUA", "email": "marcololato@cvc.com.br"}, {"status": "OK", "classification": "LOJA PADRAO", "masterBranch": "Nao", "phone": "91790137", "manager": "ANDRE LUIZ SCARINCI BESSA", "address": "AVENIDA PROFESSOR JOAO FIUSA   RIBEIRAO PRETO SP 14025320", "lat": "-21.1774997711", "long": "-47.8102798462", "branch": "9754", "storeType": "RUA", "email": "claytonlima@cvc.com.br"}, {"status": "OK", "classification": "LOJA PADRAO", "masterBranch": "Nao", "phone": "99625051", "manager": "JOAO PAULO STROPAISSI", "address": "RUA GERONCIO THIVES LETRA 142 NIVEL ITAGUACU SANTOS DUMONT SAO JOSE SC 88117900", "lat": "-27.58311945", "long": "-48.61477835", "branch": "9015", "storeType": "SHOPPING", "email": "ITAGUACU@CVC.COM.BR"}, {"status": "OK", "classification": "LOJA PADRAO", "masterBranch": "Nao", "phone": "78177894", "manager": "MARCELO NATHANSON", "address": "AEROPORTO AEROPORTO INTERNACIONAL TANCREDO NEVES NIVEL TERREO. SETOR INTERNACIONAL. Nº316 CONFINS CONFINS MG 33500000", "lat": "-19.6337509155", "long": "-43.9688606262", "branch": "1209", "storeType": "ENCERRADA", "email": "cvc1209@cvc.com.br"}, {"status": "OK", "classification": "LOJA PADRAO", "masterBranch": "Nao", "phone": "99296223", "manager": "JOAO PAULO STROPAISSI", "address": "AVENIDA AMERICO DEOLINDO GARLA LOJA 054 JARDIM PACAEMBU LONDRINA PR 86000000", "lat": "-23.3102798462", "long": "-51.1627807617", "branch": "2111", "storeType": "SHOPPING", "email": "thiago@cvc.com.br"}, {"status": "OK", "classification": "LOJA PADRAO", "masterBranch": "Nao", "phone": "36493838", "manager": "JOAO PAULO STROPAISSI", "address": "AVENIDA PRESIDENTE KENNEDY SALA 01 CENTRO PALOTINA PR 85950000", "lat": "-22.5328949346", "long": "-44.1432094879", "branch": "3431", "storeType": "RUA", "email": "antoniomarcos@cvc.com.br"}, {"status": "OK", "classification": "LOJA PADRAO", "masterBranch": "Sim", "phone": "21232106", "manager": "ROGERIO MENDES PEREIRA", "address": "RUA RUI BARBOSA 4º ANDAR. SALA 43 CENTRO RIBEIRAO PRETO SP 14015904", "lat": "-21.1774997711", "long": "-47.8102798462", "branch": "9701", "storeType": "PREDIO", "email": "mateussilva@cvc.com.br"}, {"status": "OK", "classification": "LOJA PADRAO", "masterBranch": "Nao", "phone": "37071400", "manager": "ANDRE LUIZ SCARINCI BESSA", "address": "RUA SALDANHA MARINHO CONJ 3  FRANCA SP 14400410", "lat": "-23.5398779178", "long": "-46.598354388", "branch": "9751", "storeType": "PREDIO", "email": "claytonlima@cvc.com.br"}, {"status": "OK", "classification": "LOJA PADRAO", "masterBranch": "Nao", "phone": "91129195", "manager": "ANDRE LUIZ SCARINCI BESSA", "address": "AVENIDA SAO FRANCISCO   BIRIGUI SP 16200203", "lat": "-21.2886104584", "long": "-50.3400001526", "branch": "8760", "storeType": "RUA", "email": "glaucineiaferreira@cvc.coml.br"}, {"status": "OK", "classification": "LOJA PADRAO", "masterBranch": "Nao", "phone": "34758868", "manager": "ANDRE LUIZ SCARINCI BESSA", "address": "RUA DOZE DE NOVEMBRO   AMERICANA SP 13465490", "lat": "-22.7391700745", "long": "-47.3313903809", "branch": "7251", "storeType": "RUA", "email": "fernandamarangon@cvc.com.br"}, {"status": "OK", "classification": "LOJA PADRAO", "masterBranch": "Nao", "phone": "32793643", "manager": "JOAO PAULO STROPAISSI", "address": "AVENIDA PRESIDENTE JUSCELINO KUBITSCHEK DE OLIVE   PELOTAS RS 96080000", "lat": "-23.5061576826", "long": "-47.4598216973", "branch": "6660", "storeType": "HIPERMERCADO", "email": "wilsana@cvc.com.br"}, {"status": "OK", "classification": "LOJA PADRAO", "masterBranch": "Nao", "phone": "36512035", "manager": "ANDRE LUIZ SCARINCI BESSA", "address": "RUA ARTUR VERGUEIRO LOJA 05 CENTRO ESPIRITO SANTO DO PINHAL SP 13990000", "lat": "-22.1158294678", "long": "-46.6827812195", "branch": "6388", "storeType": "RUA", "email": "marcelacandioto@cvc.com.br"}, {"status": "OK", "classification": "LOJA PADRAO", "masterBranch": "Nao", "phone": "20869720", "manager": "VIVIAN CRISTINA ROQUE", "address": "RUA FRADIQUE COUTINHO   SAO PAULO SP 5416010", "lat": "-23.5475006104", "long": "-46.6361083984", "branch": "5991", "storeType": "RUA", "email": "adrianacelestino@cvc.com.br"}, {"status": "OK", "classification": "LOJA PADRAO", "masterBranch": "Nao", "phone": "91528964", "manager": "", "address": "AVENIDA PRESIDENTE CARLOS LUZ   BELO HORIZONTE MG 31310250", "lat": "-19.9208297729", "long": "-43.9377784729", "branch": "1264", "storeType": "ENCERRADA", "email": "GUSTAVOSANCHEZ@CVC.COM.BR"}, {"status": "OK", "classification": "LOJA PADRAO", "masterBranch": "Nao", "phone": "91155057", "manager": "ANDRE LUIZ SCARINCI BESSA", "address": "RUA FREI GASPAR LOJA 346 CENTRO SAO VICENTE SP 11310935", "lat": "-23.9666690826", "long": "-46.5", "branch": "9435", "storeType": "SHOPPING", "email": "anacassia@cvc.com.br"}, {"status": "OK", "classification": "LOJA PADRAO", "masterBranch": "Nao", "phone": "30360436", "manager": "ANSELMO  UGIIE  BREVES", "address": "AVENIDA REPUBLICA DO LIBANO LOJA 1007  RECIFE PE 51110160", "lat": "-23.5893169121", "long": "-46.6644491214", "branch": "2380", "storeType": "SHOPPING", "email": "yaskara@cvc.com.br"}, {"status": "OK", "classification": "LOJA PADRAO", "masterBranch": "Nao", "phone": "33023088", "manager": "ANDRE LUIZ SCARINCI BESSA", "address": "AVENIDA ITAVUVU LOJA 2024/2025  SOROCABA SP 18078005", "lat": "-23.5016708374", "long": "-47.4580612183", "branch": "4870", "storeType": "SHOPPING", "email": "ricardonaves@cvc.com.br"},